{
  "type": "FeatureCollection",
  "features": [
    {
      "type": "Feature",
      "geometry": {
        "type": "Point",
        "coordinates": [
          12.3598912,
          50.1694491
        ]
      },
      "properties": {
        "@id": "node/24577932",
        "name": "Hrad Vildštejn",
        "historic": "castle",
        "wikidata": "Q1014392"
      }
    },
    {
      "type": "Feature",
      "geometry": {
        "type": "Point",
        "coordinates": [
          17.3018576,
          49.7330775
        ]
      },
      "properties": {
        "@id": "node/24578064",
        "name": "Hrad Šternberk",
        "historic": "castle",
        "website": "https://www.hrad-sternberk.cz/",
        "wikidata": "Q1014755"
      }
    },
    {
      "type": "Feature",
      "geometry": {
        "type": "Point",
        "coordinates": [
          17.4300037,
          49.6682146
        ]
      },
      "properties": {
        "@id": "node/40919683",
        "name": "Hluboký",
        "historic": "castle"
      }
    },
    {
      "type": "Feature",
      "geometry": {
        "type": "Point",
        "coordinates": [
          17.0144534,
          49.7989957
        ]
      },
      "properties": {
        "@id": "node/81890652",
        "name": "Zámek Úsov",
        "historic": "castle",
        "wikidata": "Q1586560"
      }
    },
    {
      "type": "Feature",
      "geometry": {
        "type": "Point",
        "coordinates": [
          16.889477,
          49.7050989
        ]
      },
      "properties": {
        "@id": "node/185426197",
        "name": "Hrad Bouzov",
        "historic": "castle",
        "website": "https://www.hrad-bouzov.cz/",
        "wikidata": "Q940492"
      }
    },
    {
      "type": "Feature",
      "geometry": {
        "type": "Point",
        "coordinates": [
          12.6040424,
          50.6644461
        ]
      },
      "properties": {
        "@id": "node/197985029",
        "name": "Schloss Wildenfels",
        "historic": "castle",
        "wikidata": "Q1428483"
      }
    },
    {
      "type": "Feature",
      "geometry": {
        "type": "Point",
        "coordinates": [
          21.8321021,
          48.9023123
        ]
      },
      "properties": {
        "@id": "node/206244311",
        "name": "Brekov",
        "historic": "castle",
        "wikidata": "Q11335233"
      }
    },
    {
      "type": "Feature",
      "geometry": {
        "type": "Point",
        "coordinates": [
          12.0388806,
          50.7071859
        ]
      },
      "properties": {
        "@id": "node/241769833",
        "name": "Burgruine Reichenfels",
        "historic": "castle",
        "wikidata": "Q20480121"
      }
    },
    {
      "type": "Feature",
      "geometry": {
        "type": "Point",
        "coordinates": [
          16.8463478,
          49.7963788
        ]
      },
      "properties": {
        "@id": "node/244503459",
        "name": "Mírov",
        "historic": "castle",
        "wikidata": "Q12039236"
      }
    },
    {
      "type": "Feature",
      "geometry": {
        "type": "Point",
        "coordinates": [
          18.0146386,
          48.9604742
        ]
      },
      "properties": {
        "@id": "node/245427386",
        "name": "Súča",
        "historic": "castle"
      }
    },
    {
      "type": "Feature",
      "geometry": {
        "type": "Point",
        "coordinates": [
          20.935392,
          49.0572832
        ]
      },
      "properties": {
        "@id": "node/245430397",
        "name": "Lipovce",
        "historic": "castle",
        "wikidata": "Q23072117"
      }
    },
    {
      "type": "Feature",
      "geometry": {
        "type": "Point",
        "coordinates": [
          17.0828706,
          48.2754186
        ]
      },
      "properties": {
        "@id": "node/245833838",
        "name": "Pajštún",
        "historic": "castle",
        "wikidata": "Q12773302"
      }
    },
    {
      "type": "Feature",
      "geometry": {
        "type": "Point",
        "coordinates": [
          12.6347564,
          50.7577933
        ]
      },
      "properties": {
        "@id": "node/254109644",
        "name": "Schloss Lichtenstein",
        "historic": "castle",
        "wikidata": "Q2242182"
      }
    },
    {
      "type": "Feature",
      "geometry": {
        "type": "Point",
        "coordinates": [
          18.5145037,
          50.4563265
        ]
      },
      "properties": {
        "@id": "node/256413137",
        "name": "Zamek toszecki",
        "historic": "castle"
      }
    },
    {
      "type": "Feature",
      "geometry": {
        "type": "Point",
        "coordinates": [
          12.6877476,
          50.9158191
        ]
      },
      "properties": {
        "@id": "node/257625890",
        "name": "Ruine Zinnberg",
        "historic": "castle",
        "wikidata": "Q2175508"
      }
    },
    {
      "type": "Feature",
      "geometry": {
        "type": "Point",
        "coordinates": [
          14.1508281,
          47.5563876
        ]
      },
      "properties": {
        "@id": "node/259614376",
        "name": "Burgruine Wolkenstein",
        "historic": "castle",
        "website": "https://www.schladming-dachstein.at/de/Service/Infos-von-A-Z/Burgruine-Wolkenstein_az_340897",
        "wikidata": "Q1014662"
      }
    },
    {
      "type": "Feature",
      "geometry": {
        "type": "Point",
        "coordinates": [
          12.2406408,
          48.0561297
        ]
      },
      "properties": {
        "@id": "node/260039906",
        "name": "Schloss Weikertsham",
        "historic": "castle",
        "website": "https://schloss-weikertsham.de/",
        "wikidata": "Q17807440"
      }
    },
    {
      "type": "Feature",
      "geometry": {
        "type": "Point",
        "coordinates": [
          14.5807708,
          50.6119527
        ]
      },
      "properties": {
        "@id": "node/262473426",
        "name": "Jestřebí",
        "historic": "castle",
        "wikidata": "Q1404209"
      }
    },
    {
      "type": "Feature",
      "geometry": {
        "type": "Point",
        "coordinates": [
          12.1815794,
          48.160522
        ]
      },
      "properties": {
        "@id": "node/266691459",
        "name": "Schloss Haag",
        "historic": "castle",
        "wikidata": "Q1012144"
      }
    },
    {
      "type": "Feature",
      "geometry": {
        "type": "Point",
        "coordinates": [
          22.3296512,
          49.5267665
        ]
      },
      "properties": {
        "@id": "node/266787688",
        "name": "Zamek Sobień",
        "historic": "castle",
        "wikidata": "Q1014005"
      }
    },
    {
      "type": "Feature",
      "geometry": {
        "type": "Point",
        "coordinates": [
          13.5056563,
          50.9514383
        ]
      },
      "properties": {
        "@id": "node/270133622",
        "name": "Jagdschloss Grillenburg",
        "historic": "castle",
        "wikidata": "Q1678350"
      }
    },
    {
      "type": "Feature",
      "geometry": {
        "type": "Point",
        "coordinates": [
          21.2364995,
          48.7619942
        ]
      },
      "properties": {
        "@id": "node/271030573",
        "name": "Košický hrad",
        "historic": "castle",
        "website": "http://kosickyhrad.sk/",
        "wikidata": "Q12769652"
      }
    },
    {
      "type": "Feature",
      "geometry": {
        "type": "Point",
        "coordinates": [
          16.3183727,
          49.4508596
        ]
      },
      "properties": {
        "@id": "node/280082051",
        "name": "Pernštejn",
        "historic": "castle",
        "website": "https://www.hrad-pernstejn.eu/",
        "wikidata": "Q655633",
        "opening_hours": "Apr Sa-Su 09:00-15:00; May-Jun Tu-Su 09:00-16:00; Jul-Aug Tu-Su 09:00-17:00; Sep Tu-Su 09:00-16:00; Oct Sa-Su 09:00-15:00"
      }
    },
    {
      "type": "Feature",
      "geometry": {
        "type": "Point",
        "coordinates": [
          12.0106659,
          50.9298311
        ]
      },
      "properties": {
        "@id": "node/282473356",
        "name": "Schloss",
        "historic": "castle",
        "wikidata": "Q639100"
      }
    },
    {
      "type": "Feature",
      "geometry": {
        "type": "Point",
        "coordinates": [
          13.2852288,
          51.2741292
        ]
      },
      "properties": {
        "@id": "node/292071433",
        "name": "Schloss Jahnishausen",
        "historic": "castle",
        "website": "https://www.ltgj.de/",
        "wikidata": "Q15127677"
      }
    },
    {
      "type": "Feature",
      "geometry": {
        "type": "Point",
        "coordinates": [
          21.9107612,
          48.8909469
        ]
      },
      "properties": {
        "@id": "node/293390040",
        "name": "Jasenov",
        "historic": "castle",
        "wikidata": "Q13419881"
      }
    },
    {
      "type": "Feature",
      "geometry": {
        "type": "Point",
        "coordinates": [
          12.3352468,
          49.8330165
        ]
      },
      "properties": {
        "@id": "node/295263214",
        "name": "Burgruine Liebenstein",
        "historic": "castle",
        "website": "https://www.ploessberg.de/freizeit-tourismus/burgruine-liebenstein/",
        "wikidata": "Q98275255"
      }
    },
    {
      "type": "Feature",
      "geometry": {
        "type": "Point",
        "coordinates": [
          15.9039023,
          50.6498538
        ]
      },
      "properties": {
        "@id": "node/299690446",
        "name": "Žacléř",
        "historic": "castle",
        "wikidata": "Q2244387"
      }
    },
    {
      "type": "Feature",
      "geometry": {
        "type": "Point",
        "coordinates": [
          12.0450364,
          51.3679974
        ]
      },
      "properties": {
        "@id": "node/300055262",
        "name": "Zum Schloß Löpitz",
        "historic": "castle",
        "website": "https://www.schloss-loepitz.de",
        "opening_hours": "Mar-Dec: We,Th 11:30-21:00; Fr,Sa 11:30-22:00; Su 11:30-19:00"
      }
    },
    {
      "type": "Feature",
      "geometry": {
        "type": "Point",
        "coordinates": [
          12.5915596,
          49.0038916
        ]
      },
      "properties": {
        "@id": "node/300587338",
        "name": "Burg Falkenfels",
        "historic": "castle",
        "wikidata": "Q1011672"
      }
    },
    {
      "type": "Feature",
      "geometry": {
        "type": "Point",
        "coordinates": [
          12.184016,
          50.4229453
        ]
      },
      "properties": {
        "@id": "node/300678755",
        "name": "Schloss Voigtsberg",
        "historic": "castle",
        "website": "https://www.schloss-voigtsberg.de/",
        "wikidata": "Q1014418"
      }
    },
    {
      "type": "Feature",
      "geometry": {
        "type": "Point",
        "coordinates": [
          17.1112374,
          48.2548559
        ]
      },
      "properties": {
        "@id": "node/302428961",
        "name": "Dračí hrádok",
        "historic": "castle",
        "wikidata": "Q12764903"
      }
    },
    {
      "type": "Feature",
      "geometry": {
        "type": "Point",
        "coordinates": [
          12.4715226,
          49.3809104
        ]
      },
      "properties": {
        "@id": "node/307475302",
        "name": "Burg Thanstein",
        "historic": "castle",
        "wikidata": "Q98278388"
      }
    },
    {
      "type": "Feature",
      "geometry": {
        "type": "Point",
        "coordinates": [
          13.9460412,
          50.9615115
        ]
      },
      "properties": {
        "@id": "node/307878075",
        "name": "Schloss Sonnenstein",
        "historic": "castle",
        "wikidata": "Q606631"
      }
    },
    {
      "type": "Feature",
      "geometry": {
        "type": "Point",
        "coordinates": [
          13.4622074,
          48.591123
        ]
      },
      "properties": {
        "@id": "node/309865881",
        "name": "Burgruine Hals",
        "historic": "castle",
        "wikidata": "Q1015317"
      }
    },
    {
      "type": "Feature",
      "geometry": {
        "type": "Point",
        "coordinates": [
          12.8777533,
          49.2375587
        ]
      },
      "properties": {
        "@id": "node/310393454",
        "name": "Burgruine Lichteneck",
        "historic": "castle",
        "wikidata": "Q1012930"
      }
    },
    {
      "type": "Feature",
      "geometry": {
        "type": "Point",
        "coordinates": [
          15.9954134,
          47.8359379
        ]
      },
      "properties": {
        "@id": "node/310513518",
        "name": "Ruine Scheuchenstein",
        "historic": "castle",
        "wikidata": "Q55131923"
      }
    },
    {
      "type": "Feature",
      "geometry": {
        "type": "Point",
        "coordinates": [
          18.8238535,
          47.5139113
        ]
      },
      "properties": {
        "@id": "node/316048161",
        "name": "Várady-kastély",
        "historic": "castle"
      }
    },
    {
      "type": "Feature",
      "geometry": {
        "type": "Point",
        "coordinates": [
          20.9310066,
          48.8504295
        ]
      },
      "properties": {
        "@id": "node/331848003",
        "name": "Gelnica",
        "historic": "castle",
        "wikidata": "Q12766284"
      }
    },
    {
      "type": "Feature",
      "geometry": {
        "type": "Point",
        "coordinates": [
          14.5511772,
          51.0334955
        ]
      },
      "properties": {
        "@id": "node/332109966",
        "name": "Friedersdorfer Schloss",
        "historic": "castle",
        "wikidata": "Q2241069"
      }
    },
    {
      "type": "Feature",
      "geometry": {
        "type": "Point",
        "coordinates": [
          12.0425468,
          49.4115421
        ]
      },
      "properties": {
        "@id": "node/332315979",
        "name": "Schloss Wolfring",
        "historic": "castle",
        "wikidata": "Q19308763"
      }
    },
    {
      "type": "Feature",
      "geometry": {
        "type": "Point",
        "coordinates": [
          16.9764873,
          49.7094824
        ]
      },
      "properties": {
        "@id": "node/334749835",
        "name": "zámek Bílá Lhota",
        "historic": "castle",
        "wikidata": "Q11706503"
      }
    },
    {
      "type": "Feature",
      "geometry": {
        "type": "Point",
        "coordinates": [
          17.0622998,
          49.6005146
        ]
      },
      "properties": {
        "@id": "node/336022914",
        "name": "Středověký hrad Náměšť",
        "historic": "castle",
        "wikidata": "Q12041601"
      }
    },
    {
      "type": "Feature",
      "geometry": {
        "type": "Point",
        "coordinates": [
          15.4694303,
          50.0137235
        ]
      },
      "properties": {
        "@id": "node/340084479",
        "name": "Zdechovice",
        "historic": "castle"
      }
    },
    {
      "type": "Feature",
      "geometry": {
        "type": "Point",
        "coordinates": [
          12.6006333,
          51.0193933
        ]
      },
      "properties": {
        "@id": "node/340373543",
        "name": "Burg Kohren",
        "historic": "castle",
        "wikidata": "Q1012693"
      }
    },
    {
      "type": "Feature",
      "geometry": {
        "type": "Point",
        "coordinates": [
          15.768517,
          49.9786605
        ]
      },
      "properties": {
        "@id": "node/343500633",
        "name": "Zámek Medlešice",
        "historic": "castle",
        "wikidata": "Q33251153"
      }
    },
    {
      "type": "Feature",
      "geometry": {
        "type": "Point",
        "coordinates": [
          16.2132315,
          50.2634071
        ]
      },
      "properties": {
        "@id": "node/347343662",
        "name": "Zámek Skalka",
        "historic": "castle",
        "wikidata": "Q18564613"
      }
    },
    {
      "type": "Feature",
      "geometry": {
        "type": "Point",
        "coordinates": [
          16.2507059,
          50.2067854
        ]
      },
      "properties": {
        "@id": "node/347391779",
        "name": "zámek Kvasiny",
        "historic": "castle",
        "wikidata": "Q33322166"
      }
    },
    {
      "type": "Feature",
      "geometry": {
        "type": "Point",
        "coordinates": [
          16.2143033,
          50.1883083
        ]
      },
      "properties": {
        "@id": "node/347603555",
        "name": "Zámek Černíkovice",
        "historic": "castle",
        "wikidata": "Q36857292"
      }
    },
    {
      "type": "Feature",
      "geometry": {
        "type": "Point",
        "coordinates": [
          19.1464581,
          48.7367208
        ]
      },
      "properties": {
        "@id": "node/347715808",
        "name": "Barbakan",
        "historic": "castle",
        "website": "https://www.visitbanskabystrica.sk/art/mestsky-hrad/",
        "wikidata": "Q112089754"
      }
    },
    {
      "type": "Feature",
      "geometry": {
        "type": "Point",
        "coordinates": [
          14.7679133,
          50.0860018
        ]
      },
      "properties": {
        "@id": "node/347978932",
        "name": "bývalá tvrz Tuklaty",
        "historic": "castle",
        "wikidata": "Q38149847"
      }
    },
    {
      "type": "Feature",
      "geometry": {
        "type": "Point",
        "coordinates": [
          16.1870122,
          50.1307681
        ]
      },
      "properties": {
        "@id": "node/349213218",
        "name": "Zámek Častolovice",
        "historic": "castle",
        "wikidata": "Q1708948"
      }
    },
    {
      "type": "Feature",
      "geometry": {
        "type": "Point",
        "coordinates": [
          16.1997473,
          50.1226323
        ]
      },
      "properties": {
        "@id": "node/349215435",
        "name": "Nový zámek",
        "historic": "castle",
        "wikidata": "Q2241917"
      }
    },
    {
      "type": "Feature",
      "geometry": {
        "type": "Point",
        "coordinates": [
          16.0875967,
          50.0492406
        ]
      },
      "properties": {
        "@id": "node/351530948",
        "name": "Zámek Horní Jelení",
        "historic": "castle",
        "wikidata": "Q98931947"
      }
    },
    {
      "type": "Feature",
      "geometry": {
        "type": "Point",
        "coordinates": [
          16.2319348,
          50.0694077
        ]
      },
      "properties": {
        "@id": "node/352738780",
        "name": "Zámek Přestavlky",
        "historic": "castle"
      }
    },
    {
      "type": "Feature",
      "geometry": {
        "type": "Point",
        "coordinates": [
          13.5561686,
          50.73607
        ]
      },
      "properties": {
        "@id": "node/359566327",
        "name": "Burgruine Rechenberg",
        "historic": "castle",
        "wikidata": "Q1015470"
      }
    },
    {
      "type": "Feature",
      "geometry": {
        "type": "Point",
        "coordinates": [
          16.0344957,
          49.8841445
        ]
      },
      "properties": {
        "@id": "node/364817895",
        "name": "zřícenina Košumberk",
        "historic": "castle"
      }
    },
    {
      "type": "Feature",
      "geometry": {
        "type": "Point",
        "coordinates": [
          12.68009,
          48.9688922
        ]
      },
      "properties": {
        "@id": "node/372032064",
        "name": "Burg Mitterfels",
        "historic": "castle",
        "wikidata": "Q18581549"
      }
    },
    {
      "type": "Feature",
      "geometry": {
        "type": "Point",
        "coordinates": [
          14.9642736,
          49.3687855
        ]
      },
      "properties": {
        "@id": "node/372487312",
        "name": "Zámek",
        "historic": "castle",
        "wikidata": "Q11171950"
      }
    },
    {
      "type": "Feature",
      "geometry": {
        "type": "Point",
        "coordinates": [
          12.2242622,
          50.0972484
        ]
      },
      "properties": {
        "@id": "node/373092372",
        "name": "Burg Hohenberg",
        "historic": "castle",
        "website": "http://www.burghohenberg.de",
        "wikidata": "Q1012386"
      }
    },
    {
      "type": "Feature",
      "geometry": {
        "type": "Point",
        "coordinates": [
          12.95411,
          48.2054211
        ]
      },
      "properties": {
        "@id": "node/373451177",
        "name": "Ratzlburg",
        "historic": "castle",
        "wikidata": "Q1516977"
      }
    },
    {
      "type": "Feature",
      "geometry": {
        "type": "Point",
        "coordinates": [
          12.9589231,
          48.2603745
        ]
      },
      "properties": {
        "@id": "node/373455527",
        "name": "Burgstall Schloßberg",
        "historic": "castle",
        "wikidata": "Q17521775"
      }
    },
    {
      "type": "Feature",
      "geometry": {
        "type": "Point",
        "coordinates": [
          16.3211497,
          49.3679699
        ]
      },
      "properties": {
        "@id": "node/392408735",
        "name": "Újezd",
        "historic": "castle",
        "wikidata": "Q13365706"
      }
    },
    {
      "type": "Feature",
      "geometry": {
        "type": "Point",
        "coordinates": [
          12.0832838,
          49.9138543
        ]
      },
      "properties": {
        "@id": "node/393750021",
        "name": "Ruine Weißenstein",
        "historic": "castle",
        "wikidata": "Q2175486"
      }
    },
    {
      "type": "Feature",
      "geometry": {
        "type": "Point",
        "coordinates": [
          12.5873411,
          48.9507038
        ]
      },
      "properties": {
        "@id": "node/403115281",
        "name": "Neues Schloss Steinach",
        "historic": "castle",
        "wikidata": "Q19820667"
      }
    },
    {
      "type": "Feature",
      "geometry": {
        "type": "Point",
        "coordinates": [
          15.2138209,
          50.3865727
        ]
      },
      "properties": {
        "@id": "node/404394739",
        "name": "zámek Staré Hrady",
        "historic": "castle",
        "wikidata": "Q12056191"
      }
    },
    {
      "type": "Feature",
      "geometry": {
        "type": "Point",
        "coordinates": [
          21.3465163,
          48.9747144
        ]
      },
      "properties": {
        "@id": "node/410269028",
        "name": "Zbojnícky hrad",
        "historic": "castle",
        "website": "https://www.severovychod.sk/vylet/solnohrad-zbojnicky-hrad",
        "wikidata": "Q2377875"
      }
    },
    {
      "type": "Feature",
      "geometry": {
        "type": "Point",
        "coordinates": [
          15.1383451,
          50.4140648
        ]
      },
      "properties": {
        "@id": "node/416308623",
        "name": "zámek Vlčí Pole",
        "historic": "castle",
        "wikidata": "Q100065568"
      }
    },
    {
      "type": "Feature",
      "geometry": {
        "type": "Point",
        "coordinates": [
          13.3971427,
          51.3912293
        ]
      },
      "properties": {
        "@id": "node/430407834",
        "name": "Schloß Tiefenau",
        "historic": "castle",
        "wikidata": "Q44164500"
      }
    },
    {
      "type": "Feature",
      "geometry": {
        "type": "Point",
        "coordinates": [
          19.4300346,
          49.1475863
        ]
      },
      "properties": {
        "@id": "node/442720666",
        "name": "Liptovský hrad",
        "historic": "castle",
        "wikidata": "Q763904"
      }
    },
    {
      "type": "Feature",
      "geometry": {
        "type": "Point",
        "coordinates": [
          14.7747144,
          48.7893761
        ]
      },
      "properties": {
        "@id": "node/461975630",
        "name": "Hrad Nové Hrady",
        "historic": "castle",
        "website": "https://www.hrad-novehrady.eu/",
        "wikidata": "Q1013354"
      }
    },
    {
      "type": "Feature",
      "geometry": {
        "type": "Point",
        "coordinates": [
          12.139708,
          47.7752269
        ]
      },
      "properties": {
        "@id": "node/463210272",
        "name": "Schloss Neubeuern",
        "historic": "castle",
        "wikidata": "Q1417392"
      }
    },
    {
      "type": "Feature",
      "geometry": {
        "type": "Point",
        "coordinates": [
          12.211653,
          49.119017
        ]
      },
      "properties": {
        "@id": "node/467457626",
        "name": "Schloß Kürn",
        "historic": "castle",
        "wikidata": "Q14019972"
      }
    },
    {
      "type": "Feature",
      "geometry": {
        "type": "Point",
        "coordinates": [
          12.2559344,
          49.5981283
        ]
      },
      "properties": {
        "@id": "node/475587614",
        "name": "Burg Leuchtenberg",
        "historic": "castle",
        "website": "http://www.burgruine-leuchtenberg.de/",
        "wikidata": "Q1015391",
        "opening_hours": "Apr -Jun: We-Su 10:30-17:00; Jul-Aug: We-Su 10:30-18:00; Sep-Oct: We-Su 10:30-17:00"
      }
    },
    {
      "type": "Feature",
      "geometry": {
        "type": "Point",
        "coordinates": [
          17.0434949,
          50.6821316
        ]
      },
      "properties": {
        "@id": "node/486592423",
        "name": "Zamek na wodzie w Witostowicach",
        "historic": "castle",
        "wikidata": "Q17750090"
      }
    },
    {
      "type": "Feature",
      "geometry": {
        "type": "Point",
        "coordinates": [
          14.6757347,
          51.1643413
        ]
      },
      "properties": {
        "@id": "node/492615706",
        "name": "Schlossruine Nostitz",
        "historic": "castle"
      }
    },
    {
      "type": "Feature",
      "geometry": {
        "type": "Point",
        "coordinates": [
          12.0849595,
          50.0947013
        ]
      },
      "properties": {
        "@id": "node/497311574",
        "name": "Rittergut Höchstädt",
        "historic": "castle"
      }
    },
    {
      "type": "Feature",
      "geometry": {
        "type": "Point",
        "coordinates": [
          14.7924622,
          50.8347588
        ]
      },
      "properties": {
        "@id": "node/523083230",
        "name": "Karlsfried",
        "historic": "castle",
        "wikidata": "Q1450858"
      }
    },
    {
      "type": "Feature",
      "geometry": {
        "type": "Point",
        "coordinates": [
          12.9911944,
          50.9524292
        ]
      },
      "properties": {
        "@id": "node/528582884",
        "name": "Schloss Neusorge",
        "historic": "castle",
        "wikidata": "Q2242670"
      }
    },
    {
      "type": "Feature",
      "geometry": {
        "type": "Point",
        "coordinates": [
          12.620841,
          49.5147277
        ]
      },
      "properties": {
        "@id": "node/567380873",
        "name": "Reichenstein",
        "historic": "castle",
        "wikidata": "Q1015474"
      }
    },
    {
      "type": "Feature",
      "geometry": {
        "type": "Point",
        "coordinates": [
          19.106147,
          48.2440202
        ]
      },
      "properties": {
        "@id": "node/582116373",
        "name": "Čabraď",
        "historic": "castle",
        "wikidata": "Q2584510"
      }
    },
    {
      "type": "Feature",
      "geometry": {
        "type": "Point",
        "coordinates": [
          13.2976527,
          48.8141292
        ]
      },
      "properties": {
        "@id": "node/604707527",
        "name": "Windhoch",
        "historic": "castle"
      }
    },
    {
      "type": "Feature",
      "geometry": {
        "type": "Point",
        "coordinates": [
          12.1247954,
          47.7159342
        ]
      },
      "properties": {
        "@id": "node/604970003",
        "name": "Rachelburg",
        "historic": "castle",
        "wikidata": "Q1013364"
      }
    },
    {
      "type": "Feature",
      "geometry": {
        "type": "Point",
        "coordinates": [
          12.1777736,
          47.6430421
        ]
      },
      "properties": {
        "@id": "node/612458212",
        "name": "Burgruine Auerburg",
        "historic": "castle",
        "wikidata": "Q759250"
      }
    },
    {
      "type": "Feature",
      "geometry": {
        "type": "Point",
        "coordinates": [
          12.1645152,
          47.6000337
        ]
      },
      "properties": {
        "@id": "node/613443006",
        "name": "Burgruine Thierberg",
        "historic": "castle",
        "wikidata": "Q2175451"
      }
    },
    {
      "type": "Feature",
      "geometry": {
        "type": "Point",
        "coordinates": [
          13.5338789,
          48.7319553
        ]
      },
      "properties": {
        "@id": "node/623082884",
        "name": "Burg Kaltenstein",
        "historic": "castle",
        "wikidata": "Q15108337"
      }
    },
    {
      "type": "Feature",
      "geometry": {
        "type": "Point",
        "coordinates": [
          21.2269557,
          48.872015
        ]
      },
      "properties": {
        "@id": "node/639177768",
        "name": "Obišovský hrad",
        "historic": "castle",
        "wikidata": "Q23072119"
      }
    },
    {
      "type": "Feature",
      "geometry": {
        "type": "Point",
        "coordinates": [
          21.2063191,
          48.8592241
        ]
      },
      "properties": {
        "@id": "node/639181302",
        "name": "Kysacký hrad",
        "historic": "castle",
        "wikidata": "Q23072123"
      }
    },
    {
      "type": "Feature",
      "geometry": {
        "type": "Point",
        "coordinates": [
          15.2758512,
          50.4774754
        ]
      },
      "properties": {
        "@id": "node/652615131",
        "name": "Pařez",
        "historic": "castle",
        "wikidata": "Q1013459"
      }
    },
    {
      "type": "Feature",
      "geometry": {
        "type": "Point",
        "coordinates": [
          16.1595425,
          50.53351
        ]
      },
      "properties": {
        "@id": "node/656369499",
        "name": "Zámek Stárkov",
        "historic": "castle",
        "wikidata": "Q21874762"
      }
    },
    {
      "type": "Feature",
      "geometry": {
        "type": "Point",
        "coordinates": [
          15.7056212,
          50.2392388
        ]
      },
      "properties": {
        "@id": "node/658509043",
        "name": "Zámek Dolní Přím",
        "historic": "castle",
        "wikidata": "Q11816973"
      }
    },
    {
      "type": "Feature",
      "geometry": {
        "type": "Point",
        "coordinates": [
          15.6407727,
          50.3012975
        ]
      },
      "properties": {
        "@id": "node/658527935",
        "name": "Zámek Stračov",
        "historic": "castle",
        "wikidata": "Q31431848"
      }
    },
    {
      "type": "Feature",
      "geometry": {
        "type": "Point",
        "coordinates": [
          16.275795,
          50.1664651
        ]
      },
      "properties": {
        "@id": "node/673591336",
        "name": "Kolowrat",
        "historic": "castle",
        "wikidata": "Q960890"
      }
    },
    {
      "type": "Feature",
      "geometry": {
        "type": "Point",
        "coordinates": [
          15.8088214,
          49.0518374
        ]
      },
      "properties": {
        "@id": "node/687657626",
        "name": "Moravské Budějovice",
        "historic": "castle",
        "wikidata": "Q14435114"
      }
    },
    {
      "type": "Feature",
      "geometry": {
        "type": "Point",
        "coordinates": [
          13.189122,
          50.306441
        ]
      },
      "properties": {
        "@id": "node/691576138",
        "name": "Maleš",
        "historic": "castle",
        "wikidata": "Q21693743"
      }
    },
    {
      "type": "Feature",
      "geometry": {
        "type": "Point",
        "coordinates": [
          22.303703,
          48.8217511
        ]
      },
      "properties": {
        "@id": "node/701862887",
        "name": "Tibava",
        "historic": "castle",
        "wikidata": "Q21296341"
      }
    },
    {
      "type": "Feature",
      "geometry": {
        "type": "Point",
        "coordinates": [
          16.7082029,
          50.8872304
        ]
      },
      "properties": {
        "@id": "node/705319900",
        "name": "Zamek Górka",
        "historic": "castle",
        "wikidata": "Q19401164"
      }
    },
    {
      "type": "Feature",
      "geometry": {
        "type": "Point",
        "coordinates": [
          14.5243547,
          49.6274761
        ]
      },
      "properties": {
        "@id": "node/733024526",
        "name": "Zámek Dobrohošť",
        "historic": "castle"
      }
    },
    {
      "type": "Feature",
      "geometry": {
        "type": "Point",
        "coordinates": [
          13.0310292,
          49.4070181
        ]
      },
      "properties": {
        "@id": "node/747482855",
        "name": "Rýzmberk",
        "historic": "castle",
        "wikidata": "Q1013789"
      }
    },
    {
      "type": "Feature",
      "geometry": {
        "type": "Point",
        "coordinates": [
          13.0656645,
          49.4147883
        ]
      },
      "properties": {
        "@id": "node/747514599",
        "name": "Nový Herštjen",
        "historic": "castle",
        "wikidata": "Q12041391"
      }
    },
    {
      "type": "Feature",
      "geometry": {
        "type": "Point",
        "coordinates": [
          12.2293626,
          48.0607135
        ]
      },
      "properties": {
        "@id": "node/764412487",
        "name": "Wasserburg",
        "historic": "castle",
        "wikidata": "Q1014496"
      }
    },
    {
      "type": "Feature",
      "geometry": {
        "type": "Point",
        "coordinates": [
          12.1527374,
          50.9655658
        ]
      },
      "properties": {
        "@id": "node/796666800",
        "name": "Schloss Heuckewalde",
        "historic": "castle",
        "wikidata": "Q1255848"
      }
    },
    {
      "type": "Feature",
      "geometry": {
        "type": "Point",
        "coordinates": [
          12.6708397,
          47.5785487
        ]
      },
      "properties": {
        "@id": "node/799533694",
        "name": "Festung Pass Strub",
        "historic": "castle",
        "wikidata": "Q1408953"
      }
    },
    {
      "type": "Feature",
      "geometry": {
        "type": "Point",
        "coordinates": [
          14.6312773,
          49.6121764
        ]
      },
      "properties": {
        "@id": "node/801951241",
        "name": "Zřícenina vodní tvrze",
        "historic": "castle",
        "wikidata": "Q12031210"
      }
    },
    {
      "type": "Feature",
      "geometry": {
        "type": "Point",
        "coordinates": [
          13.7515831,
          49.155099
        ]
      },
      "properties": {
        "@id": "node/804314810",
        "name": "Dobrš",
        "historic": "castle",
        "wikidata": "Q21490295"
      }
    },
    {
      "type": "Feature",
      "geometry": {
        "type": "Point",
        "coordinates": [
          15.3442081,
          49.2724475
        ]
      },
      "properties": {
        "@id": "node/809967305",
        "name": "Janštejn",
        "historic": "castle",
        "wikidata": "Q12023537"
      }
    },
    {
      "type": "Feature",
      "geometry": {
        "type": "Point",
        "coordinates": [
          16.0429792,
          49.8358625
        ]
      },
      "properties": {
        "@id": "node/833470631",
        "name": "Hrad Rychmburk",
        "historic": "castle",
        "wikidata": "Q1013771"
      }
    },
    {
      "type": "Feature",
      "geometry": {
        "type": "Point",
        "coordinates": [
          14.6176454,
          50.4804598
        ]
      },
      "properties": {
        "@id": "node/842443119",
        "name": "Zkamenělý zámek",
        "historic": "castle",
        "wikidata": "Q14970474"
      }
    },
    {
      "type": "Feature",
      "geometry": {
        "type": "Point",
        "coordinates": [
          14.3108879,
          50.7423103
        ]
      },
      "properties": {
        "@id": "node/842666669",
        "name": "Zámek Benešov nad Ploučnicí",
        "historic": "castle",
        "website": "https://www.zamek-benesov.cz/",
        "wikidata": "Q2240237"
      }
    },
    {
      "type": "Feature",
      "geometry": {
        "type": "Point",
        "coordinates": [
          14.1836313,
          49.8938451
        ]
      },
      "properties": {
        "@id": "node/867157960",
        "name": "Zámek Svinaře",
        "historic": "castle",
        "wikidata": "Q38141530"
      }
    },
    {
      "type": "Feature",
      "geometry": {
        "type": "Point",
        "coordinates": [
          18.4260522,
          48.4786618
        ]
      },
      "properties": {
        "@id": "node/876972638",
        "name": "Hrušov",
        "historic": "castle",
        "wikidata": "Q2969407"
      }
    },
    {
      "type": "Feature",
      "geometry": {
        "type": "Point",
        "coordinates": [
          15.6537283,
          49.8368749
        ]
      },
      "properties": {
        "@id": "node/887120247",
        "name": "Vildštejn",
        "historic": "castle",
        "wikidata": "Q11899048"
      }
    },
    {
      "type": "Feature",
      "geometry": {
        "type": "Point",
        "coordinates": [
          15.6535219,
          49.8337827
        ]
      },
      "properties": {
        "@id": "node/887120251",
        "name": "Oheb",
        "historic": "castle",
        "wikidata": "Q12042268"
      }
    },
    {
      "type": "Feature",
      "geometry": {
        "type": "Point",
        "coordinates": [
          18.2722245,
          49.8172204
        ]
      },
      "properties": {
        "@id": "node/922400501",
        "name": "Schloss Witkowitz",
        "historic": "castle",
        "wikidata": "Q33527217"
      }
    },
    {
      "type": "Feature",
      "geometry": {
        "type": "Point",
        "coordinates": [
          14.41039,
          49.8673775
        ]
      },
      "properties": {
        "@id": "node/928129860",
        "name": "Zámek Hradištko",
        "historic": "castle",
        "wikidata": "Q37293013"
      }
    },
    {
      "type": "Feature",
      "geometry": {
        "type": "Point",
        "coordinates": [
          16.9296654,
          49.4426517
        ]
      },
      "properties": {
        "@id": "node/939609795",
        "name": "Starý Plumlov",
        "historic": "castle",
        "wikidata": "Q12056248"
      }
    },
    {
      "type": "Feature",
      "geometry": {
        "type": "Point",
        "coordinates": [
          16.7226927,
          49.3711626
        ]
      },
      "properties": {
        "@id": "node/944541471",
        "name": "Blansek",
        "historic": "castle",
        "wikidata": "Q11158613"
      }
    },
    {
      "type": "Feature",
      "geometry": {
        "type": "Point",
        "coordinates": [
          12.2751257,
          51.1595713
        ]
      },
      "properties": {
        "@id": "node/962544233",
        "name": "Wiprechtsburg",
        "historic": "castle",
        "wikidata": "Q1012055"
      }
    },
    {
      "type": "Feature",
      "geometry": {
        "type": "Point",
        "coordinates": [
          12.9409038,
          49.0822666
        ]
      },
      "properties": {
        "@id": "node/963781609",
        "name": "Burg Neunußberg",
        "historic": "castle",
        "wikidata": "Q1013301"
      }
    },
    {
      "type": "Feature",
      "geometry": {
        "type": "Point",
        "coordinates": [
          12.3300709,
          48.0717641
        ]
      },
      "properties": {
        "@id": "node/1023040063",
        "name": "Schlossruine Kling",
        "historic": "castle",
        "wikidata": "Q17591779"
      }
    },
    {
      "type": "Feature",
      "geometry": {
        "type": "Point",
        "coordinates": [
          12.1233131,
          49.3441982
        ]
      },
      "properties": {
        "@id": "node/1037532158",
        "name": "Schloß Fronberg",
        "historic": "castle",
        "wikidata": "Q322855"
      }
    },
    {
      "type": "Feature",
      "geometry": {
        "type": "Point",
        "coordinates": [
          12.309293,
          49.6379933
        ]
      },
      "properties": {
        "@id": "node/1058880935",
        "name": "Burg Waldau",
        "historic": "castle",
        "wikidata": "Q1014452",
        "opening_hours": "closed"
      }
    },
    {
      "type": "Feature",
      "geometry": {
        "type": "Point",
        "coordinates": [
          12.4880997,
          49.6603229
        ]
      },
      "properties": {
        "@id": "node/1085759341",
        "name": "Altes Schloss",
        "historic": "castle"
      }
    },
    {
      "type": "Feature",
      "geometry": {
        "type": "Point",
        "coordinates": [
          15.5091839,
          48.6129582
        ]
      },
      "properties": {
        "@id": "node/1103925570",
        "name": "Burgruine Rundersburg",
        "historic": "castle",
        "wikidata": "Q1013766"
      }
    },
    {
      "type": "Feature",
      "geometry": {
        "type": "Point",
        "coordinates": [
          13.5857377,
          49.2930995
        ]
      },
      "properties": {
        "@id": "node/1141005307",
        "name": "Džbán",
        "historic": "castle",
        "wikidata": "Q11863536"
      }
    },
    {
      "type": "Feature",
      "geometry": {
        "type": "Point",
        "coordinates": [
          16.1707315,
          49.1666473
        ]
      },
      "properties": {
        "@id": "node/1150767872",
        "name": "Sedlecký hrad",
        "historic": "castle",
        "wikidata": "Q12051233"
      }
    },
    {
      "type": "Feature",
      "geometry": {
        "type": "Point",
        "coordinates": [
          20.1446443,
          47.8505921
        ]
      },
      "properties": {
        "@id": "node/1158771021",
        "name": "Kisnánai vár",
        "historic": "castle",
        "wikidata": "Q1111307",
        "opening_hours": "Nov-Apr We-Su 10:00-16:00; 10:00-17:00"
      }
    },
    {
      "type": "Feature",
      "geometry": {
        "type": "Point",
        "coordinates": [
          22.1677554,
          47.9973139
        ]
      },
      "properties": {
        "@id": "node/1159039709",
        "name": "Vay-kastély",
        "historic": "castle"
      }
    },
    {
      "type": "Feature",
      "geometry": {
        "type": "Point",
        "coordinates": [
          21.5629379,
          48.7821535
        ]
      },
      "properties": {
        "@id": "node/1189905293",
        "name": "Braničev",
        "historic": "castle",
        "wikidata": "Q13397584"
      }
    },
    {
      "type": "Feature",
      "geometry": {
        "type": "Point",
        "coordinates": [
          14.525177,
          48.4658721
        ]
      },
      "properties": {
        "@id": "node/1198240199",
        "name": "Burgruine Dornach",
        "historic": "castle",
        "wikidata": "Q1015269"
      }
    },
    {
      "type": "Feature",
      "geometry": {
        "type": "Point",
        "coordinates": [
          20.9227438,
          48.0043437
        ]
      },
      "properties": {
        "@id": "node/1214800822",
        "name": "Ónodi vár",
        "historic": "castle",
        "wikidata": "Q1471804"
      }
    },
    {
      "type": "Feature",
      "geometry": {
        "type": "Point",
        "coordinates": [
          17.1973142,
          48.4212344
        ]
      },
      "properties": {
        "@id": "node/1219422339",
        "name": "Kuchyňa",
        "historic": "castle",
        "wikidata": "Q108195799"
      }
    },
    {
      "type": "Feature",
      "geometry": {
        "type": "Point",
        "coordinates": [
          13.7420676,
          47.6374782
        ]
      },
      "properties": {
        "@id": "node/1231202970",
        "name": "Ruine Pflindsberg",
        "historic": "castle",
        "wikidata": "Q1013484"
      }
    },
    {
      "type": "Feature",
      "geometry": {
        "type": "Point",
        "coordinates": [
          13.0881527,
          47.7860503
        ]
      },
      "properties": {
        "@id": "node/1252211299",
        "name": "Schloss Aigen",
        "historic": "castle",
        "wikidata": "Q873913"
      }
    },
    {
      "type": "Feature",
      "geometry": {
        "type": "Point",
        "coordinates": [
          14.9412079,
          48.2345282
        ]
      },
      "properties": {
        "@id": "node/1257048104",
        "name": "Ruine Sarmingstein",
        "historic": "castle",
        "wikidata": "Q15108348"
      }
    },
    {
      "type": "Feature",
      "geometry": {
        "type": "Point",
        "coordinates": [
          20.6866684,
          49.4890052
        ]
      },
      "properties": {
        "@id": "node/1260496633",
        "name": "Ruiny Zamku w Rytrze",
        "historic": "castle",
        "wikidata": "Q9386734"
      }
    },
    {
      "type": "Feature",
      "geometry": {
        "type": "Point",
        "coordinates": [
          16.5117834,
          49.458172
        ]
      },
      "properties": {
        "@id": "node/1295246692",
        "name": "Rychvald",
        "historic": "castle",
        "wikidata": "Q12050488"
      }
    },
    {
      "type": "Feature",
      "geometry": {
        "type": "Point",
        "coordinates": [
          16.424704,
          49.4437453
        ]
      },
      "properties": {
        "@id": "node/1295300601",
        "name": "Osiky",
        "historic": "castle",
        "wikidata": "Q12042969"
      }
    },
    {
      "type": "Feature",
      "geometry": {
        "type": "Point",
        "coordinates": [
          16.9442094,
          49.4789744
        ]
      },
      "properties": {
        "@id": "node/1295332406",
        "name": "Ježův hrad",
        "historic": "castle",
        "wikidata": "Q12024705"
      }
    },
    {
      "type": "Feature",
      "geometry": {
        "type": "Point",
        "coordinates": [
          18.6391694,
          48.6857744
        ]
      },
      "properties": {
        "@id": "node/1298495342",
        "name": "Sivý Kameň",
        "historic": "castle",
        "wikidata": "Q9386553"
      }
    },
    {
      "type": "Feature",
      "geometry": {
        "type": "Point",
        "coordinates": [
          16.1593611,
          50.3408999
        ]
      },
      "properties": {
        "@id": "node/1304815838",
        "name": "zřícenina hradu Výrov",
        "historic": "castle",
        "wikidata": "Q11997003",
        "opening_hours": "24/7"
      }
    },
    {
      "type": "Feature",
      "geometry": {
        "type": "Point",
        "coordinates": [
          15.7141768,
          49.4873471
        ]
      },
      "properties": {
        "@id": "node/1305982030",
        "name": "Zámek Polná",
        "historic": "castle",
        "wikidata": "Q15730960"
      }
    },
    {
      "type": "Feature",
      "geometry": {
        "type": "Point",
        "coordinates": [
          12.9889828,
          48.4963536
        ]
      },
      "properties": {
        "@id": "node/1312215034",
        "name": "Schloss Baumgarten",
        "historic": "castle",
        "wikidata": "Q17591763"
      }
    },
    {
      "type": "Feature",
      "geometry": {
        "type": "Point",
        "coordinates": [
          20.4790648,
          51.4495255
        ]
      },
      "properties": {
        "@id": "node/1340310510",
        "name": "Zamek gotycko-renesansowy XVI w.",
        "historic": "castle",
        "wikidata": "Q9386627"
      }
    },
    {
      "type": "Feature",
      "geometry": {
        "type": "Point",
        "coordinates": [
          16.3077459,
          49.3883224
        ]
      },
      "properties": {
        "@id": "node/1356937510",
        "name": "Rysov",
        "historic": "castle",
        "wikidata": "Q1013775"
      }
    },
    {
      "type": "Feature",
      "geometry": {
        "type": "Point",
        "coordinates": [
          13.5237488,
          51.4542681
        ]
      },
      "properties": {
        "@id": "node/1359689689",
        "name": "Schloss Elsterwerda",
        "historic": "castle",
        "wikidata": "Q2240834"
      }
    },
    {
      "type": "Feature",
      "geometry": {
        "type": "Point",
        "coordinates": [
          15.8521583,
          50.85335
        ]
      },
      "properties": {
        "@id": "node/1373197215",
        "name": "Pałac Dębowy",
        "historic": "castle",
        "wikidata": "Q11814757"
      }
    },
    {
      "type": "Feature",
      "geometry": {
        "type": "Point",
        "coordinates": [
          14.5792034,
          49.9825149
        ]
      },
      "properties": {
        "@id": "node/1382676386",
        "name": "zámek Dobřejovice",
        "historic": "castle",
        "wikidata": "Q30859703"
      }
    },
    {
      "type": "Feature",
      "geometry": {
        "type": "Point",
        "coordinates": [
          21.5826736,
          48.5250975
        ]
      },
      "properties": {
        "@id": "node/1383440576",
        "name": "Kazimír",
        "historic": "castle",
        "wikidata": "Q112093419"
      }
    },
    {
      "type": "Feature",
      "geometry": {
        "type": "Point",
        "coordinates": [
          17.9691523,
          49.4715912
        ]
      },
      "properties": {
        "@id": "node/1385712131",
        "name": "Zámek Žerotínů",
        "historic": "castle",
        "wikidata": "Q33417123"
      }
    },
    {
      "type": "Feature",
      "geometry": {
        "type": "Point",
        "coordinates": [
          12.0772073,
          51.0033387
        ]
      },
      "properties": {
        "@id": "node/1388479554",
        "name": "Burgruine Kempe",
        "historic": "castle",
        "wikidata": "Q1011166"
      }
    },
    {
      "type": "Feature",
      "geometry": {
        "type": "Point",
        "coordinates": [
          13.1442559,
          49.8135867
        ]
      },
      "properties": {
        "@id": "node/1400997796",
        "name": "Luhov",
        "historic": "castle",
        "wikidata": "Q37806788"
      }
    },
    {
      "type": "Feature",
      "geometry": {
        "type": "Point",
        "coordinates": [
          16.6858937,
          50.6491034
        ]
      },
      "properties": {
        "@id": "node/1402603147",
        "name": "Ruiny zamku Owiesno",
        "historic": "castle"
      }
    },
    {
      "type": "Feature",
      "geometry": {
        "type": "Point",
        "coordinates": [
          21.0394347,
          49.1900139
        ]
      },
      "properties": {
        "@id": "node/1403747149",
        "name": "Hanigovský hrad",
        "historic": "castle",
        "wikidata": "Q15905735"
      }
    },
    {
      "type": "Feature",
      "geometry": {
        "type": "Point",
        "coordinates": [
          18.3074246,
          48.9760073
        ]
      },
      "properties": {
        "@id": "node/1418404130",
        "name": "Košeca",
        "historic": "castle",
        "wikidata": "Q19724882"
      }
    },
    {
      "type": "Feature",
      "geometry": {
        "type": "Point",
        "coordinates": [
          15.4558156,
          48.8555323
        ]
      },
      "properties": {
        "@id": "node/1419337231",
        "name": "Ruine Buchenstein",
        "historic": "castle",
        "wikidata": "Q114853544"
      }
    },
    {
      "type": "Feature",
      "geometry": {
        "type": "Point",
        "coordinates": [
          14.9790324,
          50.8571809
        ]
      },
      "properties": {
        "@id": "node/1424349435",
        "name": "Curia Vitkov",
        "historic": "castle",
        "wikidata": "Q1144519"
      }
    },
    {
      "type": "Feature",
      "geometry": {
        "type": "Point",
        "coordinates": [
          18.4150973,
          49.7873192
        ]
      },
      "properties": {
        "@id": "node/1431939599",
        "name": "Zámek Šumbark",
        "historic": "castle",
        "wikidata": "Q16516540"
      }
    },
    {
      "type": "Feature",
      "geometry": {
        "type": "Point",
        "coordinates": [
          18.346331,
          49.685875
        ]
      },
      "properties": {
        "@id": "node/1432488730",
        "name": "Zámek ve Frýdku-Místku, Muzeum Beskyd",
        "historic": "castle",
        "website": "http://web.telecom.cz/muzeumbeskyd/",
        "wikidata": "Q20057388"
      }
    },
    {
      "type": "Feature",
      "geometry": {
        "type": "Point",
        "coordinates": [
          14.5894862,
          49.9052675
        ]
      },
      "properties": {
        "@id": "node/1432814532",
        "name": "Zámek Olešovice",
        "historic": "castle"
      }
    },
    {
      "type": "Feature",
      "geometry": {
        "type": "Point",
        "coordinates": [
          15.6504555,
          49.6039238
        ]
      },
      "properties": {
        "@id": "node/1438667683",
        "name": "zámek Pohled",
        "historic": "castle",
        "wikidata": "Q2242950"
      }
    },
    {
      "type": "Feature",
      "geometry": {
        "type": "Point",
        "coordinates": [
          16.3303019,
          47.5393909
        ]
      },
      "properties": {
        "@id": "node/1441998394",
        "name": "Ödes Schlössl",
        "historic": "castle",
        "wikidata": "Q118121714"
      }
    },
    {
      "type": "Feature",
      "geometry": {
        "type": "Point",
        "coordinates": [
          12.8793032,
          51.0832464
        ]
      },
      "properties": {
        "@id": "node/1456231506",
        "name": "Altes Raubschloss (Hauskellerberg)",
        "historic": "castle"
      }
    },
    {
      "type": "Feature",
      "geometry": {
        "type": "Point",
        "coordinates": [
          16.3127532,
          49.8733185
        ]
      },
      "properties": {
        "@id": "node/1462357981",
        "name": "Zámek Litomyšl",
        "historic": "castle",
        "website": "https://www.zamek-litomysl.cz/",
        "wikidata": "Q2164885"
      }
    },
    {
      "type": "Feature",
      "geometry": {
        "type": "Point",
        "coordinates": [
          21.3562514,
          49.0015936
        ]
      },
      "properties": {
        "@id": "node/1467328023",
        "name": "Šebeš",
        "historic": "castle",
        "website": "https://www.severovychod.sk/vylet/hrad-sebes",
        "wikidata": "Q13371390"
      }
    },
    {
      "type": "Feature",
      "geometry": {
        "type": "Point",
        "coordinates": [
          13.6649221,
          50.6335401
        ]
      },
      "properties": {
        "@id": "node/1476371688",
        "name": "Rýzmburk",
        "historic": "castle",
        "wikidata": "Q1013790"
      }
    },
    {
      "type": "Feature",
      "geometry": {
        "type": "Point",
        "coordinates": [
          17.6568626,
          50.5912977
        ]
      },
      "properties": {
        "@id": "node/1476691210",
        "name": "Pałac rodu Praschma z XIX wieku",
        "historic": "castle"
      }
    },
    {
      "type": "Feature",
      "geometry": {
        "type": "Point",
        "coordinates": [
          12.1664794,
          50.56817
        ]
      },
      "properties": {
        "@id": "node/1493347293",
        "name": "Burgruine Liebau",
        "historic": "castle",
        "website": "http://www.liebau.de/sites/other/burg_liebau/burg_liebau.htm",
        "wikidata": "Q1012947"
      }
    },
    {
      "type": "Feature",
      "geometry": {
        "type": "Point",
        "coordinates": [
          12.2885823,
          49.3562626
        ]
      },
      "properties": {
        "@id": "node/1494017388",
        "name": "Burgstall Ramberg",
        "historic": "castle",
        "wikidata": "Q1015875"
      }
    },
    {
      "type": "Feature",
      "geometry": {
        "type": "Point",
        "coordinates": [
          13.4609481,
          48.7151252
        ]
      },
      "properties": {
        "@id": "node/1510242634",
        "name": "Schloss Fürsteneck",
        "historic": "castle",
        "wikidata": "Q2241117"
      }
    },
    {
      "type": "Feature",
      "geometry": {
        "type": "Point",
        "coordinates": [
          15.3671623,
          48.1663467
        ]
      },
      "properties": {
        "@id": "node/1552772564",
        "name": "Ruine Sooß",
        "historic": "castle",
        "wikidata": "Q38144693"
      }
    },
    {
      "type": "Feature",
      "geometry": {
        "type": "Point",
        "coordinates": [
          18.3518623,
          49.8648699
        ]
      },
      "properties": {
        "@id": "node/1560622664",
        "name": "Zámek Rychvald",
        "historic": "castle",
        "wikidata": "Q12050489"
      }
    },
    {
      "type": "Feature",
      "geometry": {
        "type": "Point",
        "coordinates": [
          12.9897566,
          47.931286
        ]
      },
      "properties": {
        "@id": "node/1580065755",
        "name": "Burgruine Haunsperg",
        "historic": "castle",
        "wikidata": "Q1012224"
      }
    },
    {
      "type": "Feature",
      "geometry": {
        "type": "Point",
        "coordinates": [
          18.195578,
          51.1607068
        ]
      },
      "properties": {
        "@id": "node/1590850443",
        "name": "Pałac i dwór na kopcu w Chróścinie",
        "historic": "castle"
      }
    },
    {
      "type": "Feature",
      "geometry": {
        "type": "Point",
        "coordinates": [
          19.2297109,
          51.343469
        ]
      },
      "properties": {
        "@id": "node/1590850620",
        "name": "Pałac Święcickiego w Klukach",
        "historic": "castle"
      }
    },
    {
      "type": "Feature",
      "geometry": {
        "type": "Point",
        "coordinates": [
          18.4328924,
          51.3721334
        ]
      },
      "properties": {
        "@id": "node/1590850677",
        "name": "Pałac w Lututowie",
        "historic": "castle"
      }
    },
    {
      "type": "Feature",
      "geometry": {
        "type": "Point",
        "coordinates": [
          18.6161968,
          51.1997446
        ]
      },
      "properties": {
        "@id": "node/1590850871",
        "name": "Pałac w Rudzie",
        "historic": "castle"
      }
    },
    {
      "type": "Feature",
      "geometry": {
        "type": "Point",
        "coordinates": [
          18.3197379,
          51.3054976
        ]
      },
      "properties": {
        "@id": "node/1590850913",
        "name": "Pałac w Sokolnikach",
        "historic": "castle"
      }
    },
    {
      "type": "Feature",
      "geometry": {
        "type": "Point",
        "coordinates": [
          18.5716777,
          51.2193544
        ]
      },
      "properties": {
        "@id": "node/1590851021",
        "name": "Pałac w Wieluniu",
        "historic": "castle"
      }
    },
    {
      "type": "Feature",
      "geometry": {
        "type": "Point",
        "coordinates": [
          18.1470876,
          51.295927
        ]
      },
      "properties": {
        "@id": "node/1590851180",
        "name": "Zamek rycerski w Wieruszowie (pozostałości)",
        "historic": "castle",
        "website": "https://www.zamkilodzkie.pl/pliki/wier.htm"
      }
    },
    {
      "type": "Feature",
      "geometry": {
        "type": "Point",
        "coordinates": [
          19.8846231,
          51.1654697
        ]
      },
      "properties": {
        "@id": "node/1590851566",
        "name": "Ruiny zamku w Majkowicach",
        "historic": "castle",
        "website": "http://www.polskaniezwykla.pl/web/place/194,majkowice--ruiny-renesansowego-zamku.html"
      }
    },
    {
      "type": "Feature",
      "geometry": {
        "type": "Point",
        "coordinates": [
          13.3548417,
          48.7742366
        ]
      },
      "properties": {
        "@id": "node/1682183218",
        "name": "Saldenburg",
        "historic": "castle",
        "wikidata": "Q1013803"
      }
    },
    {
      "type": "Feature",
      "geometry": {
        "type": "Point",
        "coordinates": [
          14.4835325,
          50.9207154
        ]
      },
      "properties": {
        "@id": "node/1690320588",
        "name": "Krásný Buk",
        "historic": "castle",
        "wikidata": "Q499440"
      }
    },
    {
      "type": "Feature",
      "geometry": {
        "type": "Point",
        "coordinates": [
          13.2799322,
          49.02129
        ]
      },
      "properties": {
        "@id": "node/1690496001",
        "name": "Schloss Oberzwieselau",
        "historic": "castle"
      }
    },
    {
      "type": "Feature",
      "geometry": {
        "type": "Point",
        "coordinates": [
          18.8473531,
          48.5329983
        ]
      },
      "properties": {
        "@id": "node/1693888748",
        "name": "Pustý hrad",
        "historic": "castle",
        "website": "https://hradteplica.estranky.sk/",
        "wikidata": "Q12774897"
      }
    },
    {
      "type": "Feature",
      "geometry": {
        "type": "Point",
        "coordinates": [
          12.3660912,
          50.0812483
        ]
      },
      "properties": {
        "@id": "node/1709645080",
        "name": "Chebský hrad",
        "historic": "castle",
        "wikidata": "Q1068732"
      }
    },
    {
      "type": "Feature",
      "geometry": {
        "type": "Point",
        "coordinates": [
          18.0867576,
          48.3181381
        ]
      },
      "properties": {
        "@id": "node/1713245355",
        "name": "Nitriansky hrad",
        "historic": "castle",
        "website": "https://nitrianskyhrad.sk/",
        "wikidata": "Q577021"
      }
    },
    {
      "type": "Feature",
      "geometry": {
        "type": "Point",
        "coordinates": [
          14.4054353,
          50.8548285
        ]
      },
      "properties": {
        "@id": "node/1734399501",
        "name": "Falkenštejn",
        "historic": "castle",
        "wikidata": "Q364803"
      }
    },
    {
      "type": "Feature",
      "geometry": {
        "type": "Point",
        "coordinates": [
          14.8078326,
          50.5013433
        ]
      },
      "properties": {
        "@id": "node/1735093088",
        "name": "Bělá pod Bezdězem",
        "historic": "castle",
        "wikidata": "Q20755242"
      }
    },
    {
      "type": "Feature",
      "geometry": {
        "type": "Point",
        "coordinates": [
          12.1020492,
          50.4278294
        ]
      },
      "properties": {
        "@id": "node/1756012046",
        "name": "Ruine Stein",
        "historic": "castle",
        "wikidata": "Q2175442"
      }
    },
    {
      "type": "Feature",
      "geometry": {
        "type": "Point",
        "coordinates": [
          19.0515332,
          47.8186032
        ]
      },
      "properties": {
        "@id": "node/1764314056",
        "name": "BURGUS contra castrum",
        "historic": "castle",
        "wikidata": "Q1016127"
      }
    },
    {
      "type": "Feature",
      "geometry": {
        "type": "Point",
        "coordinates": [
          19.1197065,
          47.6580793
        ]
      },
      "properties": {
        "@id": "node/1764320108",
        "name": "Limes: Dunakeszi Késő-római Kikötőerőd Kiállítás",
        "historic": "castle",
        "website": "http://www.dunakeszierod-fortlet.org",
        "wikidata": "Q471153"
      }
    },
    {
      "type": "Feature",
      "geometry": {
        "type": "Point",
        "coordinates": [
          13.4627526,
          47.9379635
        ]
      },
      "properties": {
        "@id": "node/1769504338",
        "name": "Burg Kogl",
        "historic": "castle",
        "wikidata": "Q2664353"
      }
    },
    {
      "type": "Feature",
      "geometry": {
        "type": "Point",
        "coordinates": [
          12.6645946,
          49.2613594
        ]
      },
      "properties": {
        "@id": "node/1778542717",
        "name": "Schloss Waffenbrunn",
        "historic": "castle",
        "wikidata": "Q19308752"
      }
    },
    {
      "type": "Feature",
      "geometry": {
        "type": "Point",
        "coordinates": [
          14.2374433,
          48.4446188
        ]
      },
      "properties": {
        "@id": "node/1783257660",
        "name": "Ruine Lobenstein",
        "historic": "castle",
        "wikidata": "Q1015408"
      }
    },
    {
      "type": "Feature",
      "geometry": {
        "type": "Point",
        "coordinates": [
          14.3339527,
          50.3453396
        ]
      },
      "properties": {
        "@id": "node/1789656170",
        "name": "Jevín",
        "historic": "castle",
        "wikidata": "Q37319455"
      }
    },
    {
      "type": "Feature",
      "geometry": {
        "type": "Point",
        "coordinates": [
          22.4174527,
          51.2461238
        ]
      },
      "properties": {
        "@id": "node/1811555821",
        "name": "Pałac w Motyczu ( prywatny )",
        "historic": "castle"
      }
    },
    {
      "type": "Feature",
      "geometry": {
        "type": "Point",
        "coordinates": [
          13.6814964,
          49.3158933
        ]
      },
      "properties": {
        "@id": "node/1812992282",
        "name": "Prácheň",
        "historic": "castle",
        "wikidata": "Q11086332"
      }
    },
    {
      "type": "Feature",
      "geometry": {
        "type": "Point",
        "coordinates": [
          13.2902153,
          47.9139396
        ]
      },
      "properties": {
        "@id": "node/1814583962",
        "name": "Burgruine Wildenegg",
        "historic": "castle",
        "wikidata": "Q1015585"
      }
    },
    {
      "type": "Feature",
      "geometry": {
        "type": "Point",
        "coordinates": [
          16.7543736,
          49.6270405
        ]
      },
      "properties": {
        "@id": "node/1817866403",
        "name": "Jaroměřice",
        "historic": "castle",
        "wikidata": "Q12023713"
      }
    },
    {
      "type": "Feature",
      "geometry": {
        "type": "Point",
        "coordinates": [
          14.6526163,
          50.5648038
        ]
      },
      "properties": {
        "@id": "node/1825422941",
        "name": "Zámek Doksy",
        "historic": "castle",
        "wikidata": "Q11814076"
      }
    },
    {
      "type": "Feature",
      "geometry": {
        "type": "Point",
        "coordinates": [
          15.93084,
          49.00212
        ]
      },
      "properties": {
        "@id": "node/1845942142",
        "name": "Bukovina",
        "historic": "castle",
        "wikidata": "Q37288501"
      }
    },
    {
      "type": "Feature",
      "geometry": {
        "type": "Point",
        "coordinates": [
          14.6182692,
          48.9805386
        ]
      },
      "properties": {
        "@id": "node/1848012271",
        "name": "Tvrz Zvíkov",
        "historic": "castle",
        "wikidata": "Q21685648"
      }
    },
    {
      "type": "Feature",
      "geometry": {
        "type": "Point",
        "coordinates": [
          13.1723434,
          49.2744314
        ]
      },
      "properties": {
        "@id": "node/1851473427",
        "name": "bývalá tvrz Dešenice",
        "historic": "castle",
        "wikidata": "Q31731539"
      }
    },
    {
      "type": "Feature",
      "geometry": {
        "type": "Point",
        "coordinates": [
          12.7770639,
          48.400668
        ]
      },
      "properties": {
        "@id": "node/1855678963",
        "name": "Schlossökonomie Gern",
        "historic": "castle",
        "website": "http://www.schlossoekonomie.de"
      }
    },
    {
      "type": "Feature",
      "geometry": {
        "type": "Point",
        "coordinates": [
          18.2925122,
          48.4736333
        ]
      },
      "properties": {
        "@id": "node/1864094384",
        "name": "Čierny hrad",
        "historic": "castle",
        "website": "https://www.ciernyhrad.sk/",
        "wikidata": "Q12781301"
      }
    },
    {
      "type": "Feature",
      "geometry": {
        "type": "Point",
        "coordinates": [
          21.9747008,
          48.4240229
        ]
      },
      "properties": {
        "@id": "node/1864166287",
        "name": "Čonkavár",
        "historic": "castle"
      }
    },
    {
      "type": "Feature",
      "geometry": {
        "type": "Point",
        "coordinates": [
          21.8080544,
          48.3587358
        ]
      },
      "properties": {
        "@id": "node/1864185708",
        "name": "Veľký Kamenec",
        "historic": "castle",
        "wikidata": "Q12778435"
      }
    },
    {
      "type": "Feature",
      "geometry": {
        "type": "Point",
        "coordinates": [
          21.7274946,
          48.6213365
        ]
      },
      "properties": {
        "@id": "node/1865397931",
        "name": "Parič",
        "historic": "castle",
        "wikidata": "Q12043827"
      }
    },
    {
      "type": "Feature",
      "geometry": {
        "type": "Point",
        "coordinates": [
          21.4015451,
          48.5824583
        ]
      },
      "properties": {
        "@id": "node/1865485260",
        "name": "Skároš",
        "historic": "castle"
      }
    },
    {
      "type": "Feature",
      "geometry": {
        "type": "Point",
        "coordinates": [
          21.4623283,
          48.8373491
        ]
      },
      "properties": {
        "@id": "node/1865535795",
        "name": "Lipovec",
        "historic": "castle",
        "wikidata": "Q119168511"
      }
    },
    {
      "type": "Feature",
      "geometry": {
        "type": "Point",
        "coordinates": [
          22.2681544,
          48.7961616
        ]
      },
      "properties": {
        "@id": "node/1865542296",
        "name": "Hrádok Choňkovce",
        "historic": "castle",
        "wikidata": "Q134561207"
      }
    },
    {
      "type": "Feature",
      "geometry": {
        "type": "Point",
        "coordinates": [
          15.8568766,
          48.8537348
        ]
      },
      "properties": {
        "@id": "node/1870666042",
        "name": "Burg Hardegg",
        "historic": "castle",
        "wikidata": "Q681948"
      }
    },
    {
      "type": "Feature",
      "geometry": {
        "type": "Point",
        "coordinates": [
          19.601491,
          49.7463161
        ]
      },
      "properties": {
        "@id": "node/1871300655",
        "name": "Zamek Suski",
        "historic": "castle",
        "website": "http://www.zameksuski.pl"
      }
    },
    {
      "type": "Feature",
      "geometry": {
        "type": "Point",
        "coordinates": [
          12.6169273,
          49.4226296
        ]
      },
      "properties": {
        "@id": "node/1872843531",
        "name": "Burgruine Treffelstein",
        "historic": "castle",
        "wikidata": "Q1015544"
      }
    },
    {
      "type": "Feature",
      "geometry": {
        "type": "Point",
        "coordinates": [
          12.2576389,
          49.7761085
        ]
      },
      "properties": {
        "@id": "node/1890029367",
        "name": "Burg Wildenau",
        "historic": "castle",
        "website": "http://www.burg-wildenau.de/",
        "wikidata": "Q1014589"
      }
    },
    {
      "type": "Feature",
      "geometry": {
        "type": "Point",
        "coordinates": [
          21.1440584,
          51.4017692
        ]
      },
      "properties": {
        "@id": "node/1891783713",
        "name": "Zamek królewski",
        "historic": "castle",
        "wikidata": "Q9386533"
      }
    },
    {
      "type": "Feature",
      "geometry": {
        "type": "Point",
        "coordinates": [
          22.1096724,
          50.7599358
        ]
      },
      "properties": {
        "@id": "node/1897797672",
        "name": "Zamek",
        "historic": "castle"
      }
    },
    {
      "type": "Feature",
      "geometry": {
        "type": "Point",
        "coordinates": [
          17.2881654,
          48.1999392
        ]
      },
      "properties": {
        "@id": "node/1900260930",
        "name": "Čeklís",
        "historic": "castle",
        "website": "https://hradceklis.webnode.com/",
        "wikidata": "Q12781216"
      }
    },
    {
      "type": "Feature",
      "geometry": {
        "type": "Point",
        "coordinates": [
          15.8882643,
          48.8266345
        ]
      },
      "properties": {
        "@id": "node/1903145395",
        "name": "Ruine Kaja",
        "historic": "castle",
        "wikidata": "Q1012592"
      }
    },
    {
      "type": "Feature",
      "geometry": {
        "type": "Point",
        "coordinates": [
          21.1359318,
          51.3973493
        ]
      },
      "properties": {
        "@id": "node/1906542384",
        "name": "Karszówka",
        "historic": "castle"
      }
    },
    {
      "type": "Feature",
      "geometry": {
        "type": "Point",
        "coordinates": [
          14.8040809,
          51.1563991
        ]
      },
      "properties": {
        "@id": "node/1917665968",
        "name": "Schloss Mengelsdorf",
        "historic": "castle"
      }
    },
    {
      "type": "Feature",
      "geometry": {
        "type": "Point",
        "coordinates": [
          16.6527629,
          50.4403206
        ]
      },
      "properties": {
        "@id": "node/1924014326",
        "name": "Twierdza Kłodzko",
        "historic": "castle",
        "wikidata": "Q6454959"
      }
    },
    {
      "type": "Feature",
      "geometry": {
        "type": "Point",
        "coordinates": [
          22.0006286,
          50.0324722
        ]
      },
      "properties": {
        "@id": "node/1928528090",
        "name": "Zamek Lubomirskich",
        "historic": "castle",
        "wikidata": "Q4179790",
        "opening_hours": "Mo-Fr 07:30-15:30"
      }
    },
    {
      "type": "Feature",
      "geometry": {
        "type": "Point",
        "coordinates": [
          12.030106,
          51.0431472
        ]
      },
      "properties": {
        "@id": "node/1933264790",
        "name": "Schloß Droyßig",
        "historic": "castle",
        "wikidata": "Q2240668"
      }
    },
    {
      "type": "Feature",
      "geometry": {
        "type": "Point",
        "coordinates": [
          13.3287327,
          48.7207622
        ]
      },
      "properties": {
        "@id": "node/1964154432",
        "name": "Schloss Fürstenstein",
        "historic": "castle",
        "wikidata": "Q1537357"
      }
    },
    {
      "type": "Feature",
      "geometry": {
        "type": "Point",
        "coordinates": [
          18.6163169,
          49.8814477
        ]
      },
      "properties": {
        "@id": "node/1979226883",
        "name": "Pałac w Zebrzydowicach",
        "historic": "castle",
        "wikidata": "Q16587116"
      }
    },
    {
      "type": "Feature",
      "geometry": {
        "type": "Point",
        "coordinates": [
          13.7726931,
          50.5472421
        ]
      },
      "properties": {
        "@id": "node/1996045232",
        "name": "Husitská bašta",
        "historic": "castle"
      }
    },
    {
      "type": "Feature",
      "geometry": {
        "type": "Point",
        "coordinates": [
          12.9218106,
          48.8819868
        ]
      },
      "properties": {
        "@id": "node/2015783478",
        "name": "Schloss Egg",
        "historic": "castle",
        "wikidata": "Q2240735"
      }
    },
    {
      "type": "Feature",
      "geometry": {
        "type": "Point",
        "coordinates": [
          19.7559365,
          47.9273982
        ]
      },
      "properties": {
        "@id": "node/2063152543",
        "name": "Cserteri vár",
        "historic": "castle",
        "website": "https://varak.hu/latnivalo/index/216-Hasznos-Cserteri-var/",
        "wikidata": "Q1034304",
        "opening_hours": "24/7"
      }
    },
    {
      "type": "Feature",
      "geometry": {
        "type": "Point",
        "coordinates": [
          12.7542787,
          50.1871182
        ]
      },
      "properties": {
        "@id": "node/2084945348",
        "name": "Loket",
        "historic": "castle",
        "wikidata": "Q1013039"
      }
    },
    {
      "type": "Feature",
      "geometry": {
        "type": "Point",
        "coordinates": [
          13.8795685,
          49.422758
        ]
      },
      "properties": {
        "@id": "node/2091530536",
        "name": "Zámek Blatná",
        "historic": "castle",
        "website": "https://www.zamek-blatna.cz/",
        "wikidata": "Q2240326"
      }
    },
    {
      "type": "Feature",
      "geometry": {
        "type": "Point",
        "coordinates": [
          12.9661068,
          49.0606281
        ]
      },
      "properties": {
        "@id": "node/2158669753",
        "name": "Burgruine Altnußberg",
        "historic": "castle",
        "website": "https://www.burgruine-altnussberg.de/",
        "wikidata": "Q1010775"
      }
    },
    {
      "type": "Feature",
      "geometry": {
        "type": "Point",
        "coordinates": [
          16.4143086,
          48.6130583
        ]
      },
      "properties": {
        "@id": "node/2170792060",
        "name": "Ruine Wenzersdorf",
        "historic": "castle",
        "wikidata": "Q37888402"
      }
    },
    {
      "type": "Feature",
      "geometry": {
        "type": "Point",
        "coordinates": [
          17.6230628,
          50.6419943
        ]
      },
      "properties": {
        "@id": "node/2255380526",
        "name": "Zamek Książąt Niemodlińskich",
        "historic": "castle"
      }
    },
    {
      "type": "Feature",
      "geometry": {
        "type": "Point",
        "coordinates": [
          14.6057711,
          49.944276
        ]
      },
      "properties": {
        "@id": "node/2262646526",
        "name": "zámek Nebřenice",
        "historic": "castle",
        "wikidata": "Q33253240"
      }
    },
    {
      "type": "Feature",
      "geometry": {
        "type": "Point",
        "coordinates": [
          17.4490535,
          51.2843489
        ]
      },
      "properties": {
        "@id": "node/2269926170",
        "name": "Pałac w Brzezince",
        "historic": "castle",
        "wikidata": "Q20033908"
      }
    },
    {
      "type": "Feature",
      "geometry": {
        "type": "Point",
        "coordinates": [
          13.8895227,
          50.6956636
        ]
      },
      "properties": {
        "@id": "node/2279503081",
        "name": "Kyšperk",
        "historic": "castle",
        "wikidata": "Q1012766"
      }
    },
    {
      "type": "Feature",
      "geometry": {
        "type": "Point",
        "coordinates": [
          18.9494009,
          47.592507
        ]
      },
      "properties": {
        "@id": "node/2284298983",
        "name": "Solymári vár",
        "historic": "castle",
        "website": "http://www.solymarivar.hu",
        "wikidata": "Q1294887",
        "opening_hours": "Tu-Su 10:00-18:00"
      }
    },
    {
      "type": "Feature",
      "geometry": {
        "type": "Point",
        "coordinates": [
          20.6519049,
          48.2820934
        ]
      },
      "properties": {
        "@id": "node/2293041451",
        "name": "Zöld titkok kastélyóvoda",
        "historic": "castle"
      }
    },
    {
      "type": "Feature",
      "geometry": {
        "type": "Point",
        "coordinates": [
          16.6370387,
          50.1945178
        ]
      },
      "properties": {
        "@id": "node/2294009761",
        "name": "dwór w ruinie",
        "historic": "castle"
      }
    },
    {
      "type": "Feature",
      "geometry": {
        "type": "Point",
        "coordinates": [
          16.6494659,
          51.3352761
        ]
      },
      "properties": {
        "@id": "node/2296753710",
        "name": "Zamek Piastowski",
        "historic": "castle",
        "wikidata": "Q9386761"
      }
    },
    {
      "type": "Feature",
      "geometry": {
        "type": "Point",
        "coordinates": [
          13.8662867,
          50.682659
        ]
      },
      "properties": {
        "@id": "node/2298506505",
        "name": "tvrz Starý dvůr",
        "historic": "castle",
        "wikidata": "Q37009749"
      }
    },
    {
      "type": "Feature",
      "geometry": {
        "type": "Point",
        "coordinates": [
          14.6593068,
          48.2523052
        ]
      },
      "properties": {
        "@id": "node/2330971301",
        "name": "Burgruine Mitterberg",
        "historic": "castle",
        "wikidata": "Q1015419"
      }
    },
    {
      "type": "Feature",
      "geometry": {
        "type": "Point",
        "coordinates": [
          19.1329206,
          48.2304511
        ]
      },
      "properties": {
        "@id": "node/2331025033",
        "name": "Litava (Cerovo)",
        "historic": "castle",
        "wikidata": "Q12763844"
      }
    },
    {
      "type": "Feature",
      "geometry": {
        "type": "Point",
        "coordinates": [
          18.3696116,
          49.9583519
        ]
      },
      "properties": {
        "@id": "node/2368929900",
        "name": "Zespół pałacowo-parkowy",
        "historic": "castle"
      }
    },
    {
      "type": "Feature",
      "geometry": {
        "type": "Point",
        "coordinates": [
          16.0167384,
          50.9680493
        ]
      },
      "properties": {
        "@id": "node/2378066004",
        "name": "Zamek w Lipie",
        "historic": "castle",
        "wikidata": "Q9386674"
      }
    },
    {
      "type": "Feature",
      "geometry": {
        "type": "Point",
        "coordinates": [
          12.3313356,
          47.8490981
        ]
      },
      "properties": {
        "@id": "node/2382830066",
        "name": "Burgstall Urschalling",
        "historic": "castle"
      }
    },
    {
      "type": "Feature",
      "geometry": {
        "type": "Point",
        "coordinates": [
          12.8602704,
          49.0476491
        ]
      },
      "properties": {
        "@id": "node/2418719373",
        "name": "Kollnburg",
        "historic": "castle",
        "wikidata": "Q1015382"
      }
    },
    {
      "type": "Feature",
      "geometry": {
        "type": "Point",
        "coordinates": [
          13.2348043,
          47.8984301
        ]
      },
      "properties": {
        "@id": "node/2419046147",
        "name": "Burgruine Lichtentann",
        "historic": "castle",
        "wikidata": "Q1015403"
      }
    },
    {
      "type": "Feature",
      "geometry": {
        "type": "Point",
        "coordinates": [
          14.507423,
          50.5894936
        ]
      },
      "properties": {
        "@id": "node/2420531860",
        "name": "Chudý hrádek",
        "historic": "castle",
        "website": "https://www.hrady.cz/index.php?OID=277",
        "wikidata": "Q1011348"
      }
    },
    {
      "type": "Feature",
      "geometry": {
        "type": "Point",
        "coordinates": [
          13.7099086,
          49.6681254
        ]
      },
      "properties": {
        "@id": "node/2420724251",
        "name": "Drštka",
        "historic": "castle",
        "wikidata": "Q19800573"
      }
    },
    {
      "type": "Feature",
      "geometry": {
        "type": "Point",
        "coordinates": [
          13.7308027,
          48.5171052
        ]
      },
      "properties": {
        "@id": "node/2427323256",
        "name": "Burgruine Altjochenstein",
        "historic": "castle",
        "wikidata": "Q1431577"
      }
    },
    {
      "type": "Feature",
      "geometry": {
        "type": "Point",
        "coordinates": [
          14.2601246,
          49.1243947
        ]
      },
      "properties": {
        "@id": "node/2427882912",
        "name": "Trvz Radomilice",
        "historic": "castle"
      }
    },
    {
      "type": "Feature",
      "geometry": {
        "type": "Point",
        "coordinates": [
          12.4612887,
          47.7178279
        ]
      },
      "properties": {
        "@id": "node/2454677139",
        "name": "Burgstall Rettenburg",
        "historic": "castle",
        "wikidata": "Q15108432"
      }
    },
    {
      "type": "Feature",
      "geometry": {
        "type": "Point",
        "coordinates": [
          19.1017663,
          49.5004461
        ]
      },
      "properties": {
        "@id": "node/2480639011",
        "name": "Zespół pałacowy",
        "historic": "castle"
      }
    },
    {
      "type": "Feature",
      "geometry": {
        "type": "Point",
        "coordinates": [
          18.0215813,
          49.6510487
        ]
      },
      "properties": {
        "@id": "node/2481602280",
        "name": "zámek Hukovice",
        "historic": "castle",
        "wikidata": "Q50377157"
      }
    },
    {
      "type": "Feature",
      "geometry": {
        "type": "Point",
        "coordinates": [
          20.4202832,
          49.4201095
        ]
      },
      "properties": {
        "@id": "node/2486976828",
        "name": "Zamek Pieniński",
        "historic": "castle",
        "wikidata": "Q9386547"
      }
    },
    {
      "type": "Feature",
      "geometry": {
        "type": "Point",
        "coordinates": [
          13.7698958,
          48.458095
        ]
      },
      "properties": {
        "@id": "node/2490685596",
        "name": "Burgruine Burgstall",
        "historic": "castle",
        "wikidata": "Q1015318"
      }
    },
    {
      "type": "Feature",
      "geometry": {
        "type": "Point",
        "coordinates": [
          18.430832,
          49.9011933
        ]
      },
      "properties": {
        "@id": "node/2495966681",
        "name": "Zámek Dolní Lutyně",
        "historic": "castle",
        "wikidata": "Q33414007"
      }
    },
    {
      "type": "Feature",
      "geometry": {
        "type": "Point",
        "coordinates": [
          12.3681064,
          50.1197629
        ]
      },
      "properties": {
        "@id": "node/2536298252",
        "name": "Rozhledna Zámeček",
        "historic": "castle"
      }
    },
    {
      "type": "Feature",
      "geometry": {
        "type": "Point",
        "coordinates": [
          19.0683342,
          49.0722041
        ]
      },
      "properties": {
        "@id": "node/2551440103",
        "name": "Sučiansky hrad",
        "historic": "castle",
        "wikidata": "Q20736807"
      }
    },
    {
      "type": "Feature",
      "geometry": {
        "type": "Point",
        "coordinates": [
          16.2405906,
          49.1391769
        ]
      },
      "properties": {
        "@id": "node/2589314092",
        "name": "Levnov (zřícenina)",
        "historic": "castle",
        "wikidata": "Q1012916"
      }
    },
    {
      "type": "Feature",
      "geometry": {
        "type": "Point",
        "coordinates": [
          17.3925156,
          49.4671282
        ]
      },
      "properties": {
        "@id": "node/2599682555",
        "name": "Zámek Rokytnice",
        "historic": "castle",
        "wikidata": "Q20860786"
      }
    },
    {
      "type": "Feature",
      "geometry": {
        "type": "Point",
        "coordinates": [
          16.6577689,
          49.4820881
        ]
      },
      "properties": {
        "@id": "node/2622209218",
        "name": "Bašta",
        "historic": "castle",
        "wikidata": "Q8232139"
      }
    },
    {
      "type": "Feature",
      "geometry": {
        "type": "Point",
        "coordinates": [
          18.4093468,
          48.5608084
        ]
      },
      "properties": {
        "@id": "node/2638040716",
        "name": "Michalov hrad",
        "historic": "castle",
        "website": "https://www.hrady.sk/michalov-hrad",
        "wikidata": "Q112102138"
      }
    },
    {
      "type": "Feature",
      "geometry": {
        "type": "Point",
        "coordinates": [
          15.5119613,
          49.8121361
        ]
      },
      "properties": {
        "@id": "node/2643617119",
        "name": "Červenice",
        "historic": "castle",
        "website": "https://www.hrady.cz/index.php?OID",
        "wikidata": "Q11175753"
      }
    },
    {
      "type": "Feature",
      "geometry": {
        "type": "Point",
        "coordinates": [
          15.9068712,
          48.7138933
        ]
      },
      "properties": {
        "@id": "node/2669219612",
        "name": "Schloss Schrattenthal",
        "historic": "castle",
        "wikidata": "Q2243405"
      }
    },
    {
      "type": "Feature",
      "geometry": {
        "type": "Point",
        "coordinates": [
          14.4702951,
          48.2444532
        ]
      },
      "properties": {
        "@id": "node/2673278292",
        "name": "Burgruine Spielberg",
        "historic": "castle",
        "wikidata": "Q1015521"
      }
    },
    {
      "type": "Feature",
      "geometry": {
        "type": "Point",
        "coordinates": [
          13.5371137,
          50.1026312
        ]
      },
      "properties": {
        "@id": "node/2710500963",
        "name": "Tvrziště Oráčov",
        "historic": "castle",
        "wikidata": "Q18761838"
      }
    },
    {
      "type": "Feature",
      "geometry": {
        "type": "Point",
        "coordinates": [
          16.7817739,
          49.5911605
        ]
      },
      "properties": {
        "@id": "node/2713301287",
        "name": "Durana - hradiště",
        "historic": "castle",
        "wikidata": "Q11087377"
      }
    },
    {
      "type": "Feature",
      "geometry": {
        "type": "Point",
        "coordinates": [
          12.8074432,
          49.3275481
        ]
      },
      "properties": {
        "@id": "node/2778787393",
        "name": "Schloß Voithenberg",
        "historic": "castle"
      }
    },
    {
      "type": "Feature",
      "geometry": {
        "type": "Point",
        "coordinates": [
          16.0126933,
          49.2754574
        ]
      },
      "properties": {
        "@id": "node/2780126595",
        "name": "Zámek Budišov",
        "historic": "castle",
        "wikidata": "Q11360003"
      }
    },
    {
      "type": "Feature",
      "geometry": {
        "type": "Point",
        "coordinates": [
          15.2354994,
          49.7083243
        ]
      },
      "properties": {
        "@id": "node/2808806678",
        "name": "‎Zřícenina hradu Chřenovice",
        "historic": "castle",
        "wikidata": "Q11730782"
      }
    },
    {
      "type": "Feature",
      "geometry": {
        "type": "Point",
        "coordinates": [
          17.6887414,
          49.5852584
        ]
      },
      "properties": {
        "@id": "node/2839867982",
        "name": "Hrádek Kunzov",
        "historic": "castle",
        "wikidata": "Q12031930"
      }
    },
    {
      "type": "Feature",
      "geometry": {
        "type": "Point",
        "coordinates": [
          12.4906751,
          47.7744558
        ]
      },
      "properties": {
        "@id": "node/2896009144",
        "name": "Burgstall Hohenstein",
        "historic": "castle",
        "wikidata": "Q15108394"
      }
    },
    {
      "type": "Feature",
      "geometry": {
        "type": "Point",
        "coordinates": [
          17.0952469,
          49.3050251
        ]
      },
      "properties": {
        "@id": "node/2915863132",
        "name": "Ivanovice na Hané",
        "historic": "castle",
        "wikidata": "Q12022069"
      }
    },
    {
      "type": "Feature",
      "geometry": {
        "type": "Point",
        "coordinates": [
          17.1155632,
          49.3194261
        ]
      },
      "properties": {
        "@id": "node/2915871327",
        "name": "Chvalkovice na Hané",
        "historic": "castle"
      }
    },
    {
      "type": "Feature",
      "geometry": {
        "type": "Point",
        "coordinates": [
          16.4577531,
          50.4122837
        ]
      },
      "properties": {
        "@id": "node/2927548601",
        "name": "Leśna Skała",
        "historic": "castle",
        "website": "https://zamekszczytna.pl/",
        "wikidata": "Q30049573"
      }
    },
    {
      "type": "Feature",
      "geometry": {
        "type": "Point",
        "coordinates": [
          16.7830433,
          49.6475285
        ]
      },
      "properties": {
        "@id": "node/2951624418",
        "name": "Plankenberk",
        "historic": "castle",
        "wikidata": "Q12045507"
      }
    },
    {
      "type": "Feature",
      "geometry": {
        "type": "Point",
        "coordinates": [
          13.3732894,
          48.8483284
        ]
      },
      "properties": {
        "@id": "node/2954491921",
        "name": "Schloss Bärnstein",
        "historic": "castle",
        "wikidata": "Q1801515"
      }
    },
    {
      "type": "Feature",
      "geometry": {
        "type": "Point",
        "coordinates": [
          21.279507,
          48.4232899
        ]
      },
      "properties": {
        "@id": "node/2997164826",
        "name": "Püspöki kastély",
        "historic": "castle"
      }
    },
    {
      "type": "Feature",
      "geometry": {
        "type": "Point",
        "coordinates": [
          22.2856948,
          51.0664873
        ]
      },
      "properties": {
        "@id": "node/2997246031",
        "name": "Dwór (w remoncie)",
        "historic": "castle"
      }
    },
    {
      "type": "Feature",
      "geometry": {
        "type": "Point",
        "coordinates": [
          19.8970347,
          47.9245262
        ]
      },
      "properties": {
        "@id": "node/3029500252",
        "name": "Orosz Mátyás vára",
        "historic": "castle",
        "website": "https://matrahegy.hu/varak/varak.php",
        "opening_hours": "24/7"
      }
    },
    {
      "type": "Feature",
      "geometry": {
        "type": "Point",
        "coordinates": [
          18.944286,
          47.851041
        ]
      },
      "properties": {
        "@id": "node/3046272516",
        "name": "Bibervár",
        "historic": "castle",
        "website": "https://varak.hu/latnivalo/index/417-Szokolya-PusztatoronyBibervar/",
        "opening_hours": "24/7"
      }
    },
    {
      "type": "Feature",
      "geometry": {
        "type": "Point",
        "coordinates": [
          16.0787287,
          49.127432
        ]
      },
      "properties": {
        "@id": "node/3082310353",
        "name": "Zámek Dalešice",
        "historic": "castle",
        "wikidata": "Q11774101"
      }
    },
    {
      "type": "Feature",
      "geometry": {
        "type": "Point",
        "coordinates": [
          17.4509653,
          49.4553045
        ]
      },
      "properties": {
        "@id": "node/3084413454",
        "name": "Zámek Přerov",
        "historic": "castle",
        "wikidata": "Q12048055"
      }
    },
    {
      "type": "Feature",
      "geometry": {
        "type": "Point",
        "coordinates": [
          16.5600311,
          47.6773924
        ]
      },
      "properties": {
        "@id": "node/3086979997",
        "name": "Taródi-vár",
        "historic": "castle",
        "website": "https://www.origo.hu/utazas/magyarorszag/20160511-latogatas-a-soproni-tarodi-varban-amelyet-tarodi-istvan-epitett-fel-otven-ev-alatt.html",
        "wikidata": "Q659827",
        "opening_hours": "Mo-Su 10:00-18:00"
      }
    },
    {
      "type": "Feature",
      "geometry": {
        "type": "Point",
        "coordinates": [
          16.8270179,
          49.7110734
        ]
      },
      "properties": {
        "@id": "node/3118721001",
        "name": "Tvrz Vranová Lhota",
        "historic": "castle",
        "wikidata": "Q33322364"
      }
    },
    {
      "type": "Feature",
      "geometry": {
        "type": "Point",
        "coordinates": [
          16.8102005,
          49.7160999
        ]
      },
      "properties": {
        "@id": "node/3118721002",
        "name": "Vraní Hora",
        "historic": "castle",
        "wikidata": "Q11937748"
      }
    },
    {
      "type": "Feature",
      "geometry": {
        "type": "Point",
        "coordinates": [
          20.5269966,
          49.2331182
        ]
      },
      "properties": {
        "@id": "node/3138278678",
        "name": "Panské sídlo Holumnica",
        "historic": "castle",
        "wikidata": "Q15974996"
      }
    },
    {
      "type": "Feature",
      "geometry": {
        "type": "Point",
        "coordinates": [
          14.3520867,
          50.7713646
        ]
      },
      "properties": {
        "@id": "node/3148156343",
        "name": "zámek Markvartice",
        "historic": "castle",
        "wikidata": "Q28864935"
      }
    },
    {
      "type": "Feature",
      "geometry": {
        "type": "Point",
        "coordinates": [
          19.6598053,
          49.0422361
        ]
      },
      "properties": {
        "@id": "node/3171086388",
        "name": "Veratín",
        "historic": "castle",
        "wikidata": "Q112105295"
      }
    },
    {
      "type": "Feature",
      "geometry": {
        "type": "Point",
        "coordinates": [
          14.7958909,
          50.8141844
        ]
      },
      "properties": {
        "@id": "node/3193980812",
        "name": "Větrov",
        "historic": "castle",
        "wikidata": "Q12034009"
      }
    },
    {
      "type": "Feature",
      "geometry": {
        "type": "Point",
        "coordinates": [
          12.5912119,
          48.3838167
        ]
      },
      "properties": {
        "@id": "node/3197749126",
        "name": "Schloss Hellsberg",
        "historic": "castle",
        "wikidata": "Q41286718"
      }
    },
    {
      "type": "Feature",
      "geometry": {
        "type": "Point",
        "coordinates": [
          14.7012115,
          49.8325829
        ]
      },
      "properties": {
        "@id": "node/3198317054",
        "name": "tvrz Mrač",
        "historic": "castle",
        "wikidata": "Q105702873"
      }
    },
    {
      "type": "Feature",
      "geometry": {
        "type": "Point",
        "coordinates": [
          19.6854255,
          49.940563
        ]
      },
      "properties": {
        "@id": "node/3199018978",
        "name": "Pałac w Paszkówce",
        "historic": "castle",
        "wikidata": "Q16587060"
      }
    },
    {
      "type": "Feature",
      "geometry": {
        "type": "Point",
        "coordinates": [
          20.0455991,
          48.1319445
        ]
      },
      "properties": {
        "@id": "node/3211480031",
        "name": "Gazdaság",
        "historic": "castle"
      }
    },