{
  "cachedAt": "2026-04-03T06:41:04.805Z",
  "sourceUrl": "https://cs.hory.app/country/slovenia",
  "pageTitle": "Pomurska regija, Slovinsko 🇸🇮 | Horobraní",
  "points": [
    {
      "lat": 46.4119211,
      "lon": 13.791436,
      "name": "Razor",
      "peakName": "Razor",
      "altitude": 2601,
      "mountainLink": "https://hory.app/mountain/123960-razor",
      "source": "https://cs.hory.app/area/717-goriska-regija#window.PARAMS.areaMountains"
    },
    {
      "lat": 46.4400657,
      "lon": 13.6615553,
      "name": "Vrh Planje",
      "peakName": "Vrh Planje",
      "altitude": 2596,
      "mountainLink": "https://hory.app/mountain/123961-vrh-planje",
      "source": "https://cs.hory.app/area/717-goriska-regija#window.PARAMS.areaMountains"
    },
    {
      "lat": 46.3571608,
      "lon": 13.4375824,
      "name": "Mali Kanin / Canin basso",
      "peakName": "Mali Kanin / Canin basso",
      "altitude": 2577,
      "mountainLink": "https://hory.app/mountain/123964-mali-kanin-canin-basso",
      "source": "https://cs.hory.app/area/717-goriska-regija#window.PARAMS.areaMountains"
    },
    {
      "lat": 46.4226571,
      "lon": 13.6781019,
      "name": "Mali Jalovec",
      "peakName": "Mali Jalovec",
      "altitude": 2574,
      "mountainLink": "https://hory.app/mountain/123965-mali-jalovec",
      "source": "https://cs.hory.app/area/717-goriska-regija#window.PARAMS.areaMountains"
    },
    {
      "lat": 46.3773355,
      "lon": 13.8280042,
      "name": "Glava v Zaplanji",
      "peakName": "Glava v Zaplanji",
      "altitude": 2556,
      "mountainLink": "https://hory.app/mountain/123969-glava-v-zaplanji",
      "source": "https://cs.hory.app/area/717-goriska-regija#window.PARAMS.areaMountains"
    },
    {
      "lat": 46.416019,
      "lon": 13.6794081,
      "name": "Veliki Ozebnik",
      "peakName": "Veliki Ozebnik",
      "altitude": 2480,
      "mountainLink": "https://hory.app/mountain/123988-veliki-ozebnik",
      "source": "https://cs.hory.app/area/717-goriska-regija#window.PARAMS.areaMountains"
    },
    {
      "lat": 46.3780036,
      "lon": 13.822327,
      "name": "Vrh Zelenic",
      "peakName": "Vrh Zelenic",
      "altitude": 2478,
      "mountainLink": "https://hory.app/mountain/123989-vrh-zelenic",
      "source": "https://cs.hory.app/area/717-goriska-regija#window.PARAMS.areaMountains"
    },
    {
      "lat": 46.4222669,
      "lon": 13.7720865,
      "name": "Zvoniki",
      "peakName": "Zvoniki",
      "altitude": 2470,
      "mountainLink": "https://hory.app/mountain/123993-zvoniki",
      "source": "https://cs.hory.app/area/717-goriska-regija#window.PARAMS.areaMountains"
    },
    {
      "lat": 46.4070752,
      "lon": 13.7874265,
      "name": "Planja",
      "peakName": "Planja",
      "altitude": 2449,
      "mountainLink": "https://hory.app/mountain/124001-planja",
      "source": "https://cs.hory.app/area/717-goriska-regija#window.PARAMS.areaMountains"
    },
    {
      "lat": 46.4064432,
      "lon": 13.7856397,
      "name": "Planja",
      "peakName": "Planja",
      "altitude": 2448,
      "mountainLink": "https://hory.app/mountain/124003-planja",
      "source": "https://cs.hory.app/area/717-goriska-regija#window.PARAMS.areaMountains"
    },
    {
      "lat": 46.3441175,
      "lon": 13.4442668,
      "name": "Vrh Laške Planje / Lasca Plagna",
      "peakName": "Vrh Laške Planje / Lasca Plagna",
      "altitude": 2448,
      "mountainLink": "https://hory.app/mountain/124002-vrh-laske-planje-lasca-plagna",
      "source": "https://cs.hory.app/area/717-goriska-regija#window.PARAMS.areaMountains"
    },
    {
      "lat": 46.4057204,
      "lon": 13.6720607,
      "name": "Pelc nad Klonicami",
      "peakName": "Pelc nad Klonicami",
      "altitude": 2443,
      "mountainLink": "https://hory.app/mountain/124004-pelc-nad-klonicami",
      "source": "https://cs.hory.app/area/717-goriska-regija#window.PARAMS.areaMountains"
    },
    {
      "lat": 46.3483531,
      "lon": 13.4425654,
      "name": "Črni Vogel / Cerni Vogu",
      "peakName": "Črni Vogel / Cerni Vogu",
      "altitude": 2422,
      "mountainLink": "https://hory.app/mountain/124010-crni-vogel-cerni-vogu",
      "source": "https://cs.hory.app/area/717-goriska-regija#window.PARAMS.areaMountains"
    },
    {
      "lat": 46.3928822,
      "lon": 13.8063176,
      "name": "Pihavec",
      "peakName": "Pihavec",
      "altitude": 2417,
      "mountainLink": "https://hory.app/mountain/124012-pihavec",
      "source": "https://cs.hory.app/area/717-goriska-regija#window.PARAMS.areaMountains"
    },
    {
      "lat": 46.3703093,
      "lon": 13.4942748,
      "name": "Lopa / Monte Leupa",
      "peakName": "Lopa / Monte Leupa",
      "altitude": 2403,
      "mountainLink": "https://hory.app/mountain/124020-lopa-monte-leupa",
      "source": "https://cs.hory.app/area/717-goriska-regija#window.PARAMS.areaMountains"
    },
    {
      "lat": 46.3624336,
      "lon": 13.8153613,
      "name": "Kanjavčev čop",
      "peakName": "Kanjavčev čop",
      "altitude": 2403,
      "mountainLink": "https://hory.app/mountain/124019-kanjavcev-cop",
      "source": "https://cs.hory.app/area/717-goriska-regija#window.PARAMS.areaMountains"
    },
    {
      "lat": 46.3439268,
      "lon": 13.7668899,
      "name": "Veliko Špičje",
      "peakName": "Veliko Špičje",
      "altitude": 2398,
      "mountainLink": "https://hory.app/mountain/124021-veliko-spicje",
      "source": "https://cs.hory.app/area/717-goriska-regija#window.PARAMS.areaMountains"
    },
    {
      "lat": 46.4203662,
      "lon": 13.6842361,
      "name": "Goličica",
      "peakName": "Goličica",
      "altitude": 2395,
      "mountainLink": "https://hory.app/mountain/124022-golicica",
      "source": "https://cs.hory.app/area/717-goriska-regija#window.PARAMS.areaMountains"
    },
    {
      "lat": 46.3982169,
      "lon": 13.8126688,
      "name": "Bovški Gamsovec",
      "peakName": "Bovški Gamsovec",
      "altitude": 2392,
      "mountainLink": "https://hory.app/mountain/124026-bovski-gamsovec",
      "source": "https://cs.hory.app/area/717-goriska-regija#window.PARAMS.areaMountains"
    },
    {
      "lat": 46.4005504,
      "lon": 13.6735743,
      "name": "Veliki Pelc",
      "peakName": "Veliki Pelc",
      "altitude": 2390,
      "mountainLink": "https://hory.app/mountain/124029-veliki-pelc",
      "source": "https://cs.hory.app/area/717-goriska-regija#window.PARAMS.areaMountains"
    },
    {
      "lat": 46.422683,
      "lon": 13.7770379,
      "name": "Zadnji Prisank",
      "peakName": "Zadnji Prisank",
      "altitude": 2386,
      "mountainLink": "https://hory.app/mountain/124031-zadnji-prisank",
      "source": "https://cs.hory.app/area/717-goriska-regija#window.PARAMS.areaMountains"
    },
    {
      "lat": 46.4160819,
      "lon": 13.7927046,
      "name": "Vrh Mlinarice",
      "peakName": "Vrh Mlinarice",
      "altitude": 2383,
      "mountainLink": "https://hory.app/mountain/124032-vrh-mlinarice",
      "source": "https://cs.hory.app/area/717-goriska-regija#window.PARAMS.areaMountains"
    },
    {
      "lat": 46.4136779,
      "lon": 13.798981,
      "name": "Šplevta",
      "peakName": "Šplevta",
      "altitude": 2382,
      "mountainLink": "https://hory.app/mountain/124033-splevta",
      "source": "https://cs.hory.app/area/717-goriska-regija#window.PARAMS.areaMountains"
    },
    {
      "lat": 46.347313,
      "lon": 13.4415891,
      "name": "Mali Dol",
      "peakName": "Mali Dol",
      "altitude": 2374,
      "mountainLink": "https://hory.app/mountain/124038-mali-dol",
      "source": "https://cs.hory.app/area/717-goriska-regija#window.PARAMS.areaMountains"
    },
    {
      "lat": 46.4340541,
      "lon": 13.7233717,
      "name": "Velika Mojstrovka",
      "peakName": "Velika Mojstrovka",
      "altitude": 2369,
      "mountainLink": "https://hory.app/mountain/124039-velika-mojstrovka",
      "source": "https://cs.hory.app/area/717-goriska-regija#window.PARAMS.areaMountains"
    },
    {
      "lat": 46.4360194,
      "lon": 13.7271729,
      "name": "Velika Mojstrovka",
      "peakName": "Velika Mojstrovka",
      "altitude": 2366,
      "mountainLink": "https://hory.app/mountain/124040-velika-mojstrovka",
      "source": "https://cs.hory.app/area/717-goriska-regija#window.PARAMS.areaMountains"
    },
    {
      "lat": 46.365463,
      "lon": 13.8106097,
      "name": "Glava za Žlebom",
      "peakName": "Glava za Žlebom",
      "altitude": 2362,
      "mountainLink": "https://hory.app/mountain/124042-glava-za-zlebom",
      "source": "https://cs.hory.app/area/717-goriska-regija#window.PARAMS.areaMountains"
    },
    {
      "lat": 46.3942246,
      "lon": 13.8096718,
      "name": "Vrh nad Kamnom",
      "peakName": "Vrh nad Kamnom",
      "altitude": 2360,
      "mountainLink": "https://hory.app/mountain/124043-vrh-nad-kamnom",
      "source": "https://cs.hory.app/area/717-goriska-regija#window.PARAMS.areaMountains"
    },
    {
      "lat": 46.4098417,
      "lon": 13.8020271,
      "name": "Kriški rob",
      "peakName": "Kriški rob",
      "altitude": 2357,
      "mountainLink": "https://hory.app/mountain/124044-kriski-rob",
      "source": "https://cs.hory.app/area/717-goriska-regija#window.PARAMS.areaMountains"
    },
    {
      "lat": 46.4309397,
      "lon": 13.7199202,
      "name": "Zadnja Mojstrovka",
      "peakName": "Zadnja Mojstrovka",
      "altitude": 2356,
      "mountainLink": "https://hory.app/mountain/124045-zadnja-mojstrovka",
      "source": "https://cs.hory.app/area/717-goriska-regija#window.PARAMS.areaMountains"
    },
    {
      "lat": 46.427612,
      "lon": 13.709532,
      "name": "Kol",
      "peakName": "Kol",
      "altitude": 2350,
      "mountainLink": "https://hory.app/mountain/124047-kol",
      "source": "https://cs.hory.app/area/717-goriska-regija#window.PARAMS.areaMountains"
    },
    {
      "lat": 46.3568184,
      "lon": 13.465683,
      "name": "Vrh Osojnic",
      "peakName": "Vrh Osojnic",
      "altitude": 2348,
      "mountainLink": "https://hory.app/mountain/124052-vrh-osojnic",
      "source": "https://cs.hory.app/area/717-goriska-regija#window.PARAMS.areaMountains"
    },
    {
      "lat": 46.3689593,
      "lon": 13.6701769,
      "name": "Bavški Grintavec",
      "peakName": "Bavški Grintavec",
      "altitude": 2347,
      "mountainLink": "https://hory.app/mountain/124053-bavski-grintavec",
      "source": "https://cs.hory.app/area/717-goriska-regija#window.PARAMS.areaMountains"
    },
    {
      "lat": 46.395005,
      "lon": 13.6318661,
      "name": "Briceljk",
      "peakName": "Briceljk",
      "altitude": 2346,
      "mountainLink": "https://hory.app/mountain/124054-briceljk",
      "source": "https://cs.hory.app/area/717-goriska-regija#window.PARAMS.areaMountains"
    },
    {
      "lat": 46.360528,
      "lon": 13.4787723,
      "name": "Grdi vršič",
      "peakName": "Grdi vršič",
      "altitude": 2344,
      "mountainLink": "https://hory.app/mountain/124055-grdi-vrsic",
      "source": "https://cs.hory.app/area/717-goriska-regija#window.PARAMS.areaMountains"
    },
    {
      "lat": 46.3401971,
      "lon": 13.4445824,
      "name": "Vrh Žlebi / Monte Slebe",
      "peakName": "Vrh Žlebi / Monte Slebe",
      "altitude": 2339,
      "mountainLink": "https://hory.app/mountain/124058-vrh-zlebi-monte-slebe",
      "source": "https://cs.hory.app/area/717-goriska-regija#window.PARAMS.areaMountains"
    },
    {
      "lat": 46.3975968,
      "lon": 13.671997,
      "name": "Srednji Pelc",
      "peakName": "Srednji Pelc",
      "altitude": 2338,
      "mountainLink": "https://hory.app/mountain/124059-srednji-pelc",
      "source": "https://cs.hory.app/area/717-goriska-regija#window.PARAMS.areaMountains"
    },
    {
      "lat": 46.3765619,
      "lon": 13.5156618,
      "name": "Velika Črnelska špica / Cima Confine",
      "peakName": "Velika Črnelska špica / Cima Confine",
      "altitude": 2334,
      "mountainLink": "https://hory.app/mountain/124060-velika-crnelska-spica-cima-confine",
      "source": "https://cs.hory.app/area/717-goriska-regija#window.PARAMS.areaMountains"
    },
    {
      "lat": 46.3434522,
      "lon": 13.4472361,
      "name": "Turn pod Laško Planjo",
      "peakName": "Turn pod Laško Planjo",
      "altitude": 2324,
      "mountainLink": "https://hory.app/mountain/124065-turn-pod-lasko-planjo",
      "source": "https://cs.hory.app/area/717-goriska-regija#window.PARAMS.areaMountains"
    },
    {
      "lat": 46.4071497,
      "lon": 13.6684942,
      "name": "Mali Ozebnik",
      "peakName": "Mali Ozebnik",
      "altitude": 2321,
      "mountainLink": "https://hory.app/mountain/124066-mali-ozebnik",
      "source": "https://cs.hory.app/area/717-goriska-regija#window.PARAMS.areaMountains"
    },
    {
      "lat": 46.3407053,
      "lon": 13.4445874,
      "name": "Kamen",
      "peakName": "Kamen",
      "altitude": 2317,
      "mountainLink": "https://hory.app/mountain/124068-kamen",
      "source": "https://cs.hory.app/area/717-goriska-regija#window.PARAMS.areaMountains"
    },
    {
      "lat": 46.4241029,
      "lon": 13.7596786,
      "name": "Vrh Kraj sten",
      "peakName": "Vrh Kraj sten",
      "altitude": 2314,
      "mountainLink": "https://hory.app/mountain/124069-vrh-kraj-sten",
      "source": "https://cs.hory.app/area/717-goriska-regija#window.PARAMS.areaMountains"
    },
    {
      "lat": 46.3550246,
      "lon": 13.4467359,
      "name": "Visoka glava",
      "peakName": "Visoka glava",
      "altitude": 2310,
      "mountainLink": "https://hory.app/mountain/124073-visoka-glava",
      "source": "https://cs.hory.app/area/717-goriska-regija#window.PARAMS.areaMountains"
    },
    {
      "lat": 46.423074,
      "lon": 13.6916189,
      "name": "Šite",
      "peakName": "Šite",
      "altitude": 2308,
      "mountainLink": "https://hory.app/mountain/124076-site",
      "source": "https://cs.hory.app/area/717-goriska-regija#window.PARAMS.areaMountains"
    },
    {
      "lat": 46.3916713,
      "lon": 13.626283,
      "name": "Oltarji",
      "peakName": "Oltarji",
      "altitude": 2295,
      "mountainLink": "https://hory.app/mountain/124079-oltarji",
      "source": "https://cs.hory.app/area/717-goriska-regija#window.PARAMS.areaMountains"
    },
    {
      "lat": 46.352973,
      "lon": 13.4695043,
      "name": "Kojnc",
      "peakName": "Kojnc",
      "altitude": 2295,
      "mountainLink": "https://hory.app/mountain/124078-kojnc",
      "source": "https://cs.hory.app/area/717-goriska-regija#window.PARAMS.areaMountains"
    },
    {
      "lat": 46.3665519,
      "lon": 13.6662472,
      "name": "Mali Grintavec",
      "peakName": "Mali Grintavec",
      "altitude": 2294,
      "mountainLink": "https://hory.app/mountain/190048-mali-grintavec",
      "source": "https://cs.hory.app/area/717-goriska-regija#window.PARAMS.areaMountains"
    },
    {
      "lat": 46.3650938,
      "lon": 13.4776565,
      "name": "Cime Pecorelle / Prestreljeniški vršiči",
      "peakName": "Cime Pecorelle / Prestreljeniški vršiči",
      "altitude": 2290,
      "mountainLink": "https://hory.app/mountain/124081-cime-pecorelle-prestreljeniski-vrsici",
      "source": "https://cs.hory.app/area/717-goriska-regija#window.PARAMS.areaMountains"
    },
    {
      "lat": 46.3704214,
      "lon": 13.4866505,
      "name": "Golovec",
      "peakName": "Golovec",
      "altitude": 2285,
      "mountainLink": "https://hory.app/mountain/124082-golovec",
      "source": "https://cs.hory.app/area/717-goriska-regija#window.PARAMS.areaMountains"
    },
    {
      "lat": 46.3614203,
      "lon": 13.4813257,
      "name": "Ovčji vršič",
      "peakName": "Ovčji vršič",
      "altitude": 2283,
      "mountainLink": "https://hory.app/mountain/124083-ovcji-vrsic",
      "source": "https://cs.hory.app/area/717-goriska-regija#window.PARAMS.areaMountains"
    },
    {
      "lat": 46.3572497,
      "lon": 13.4530123,
      "name": "Veliki Talir",
      "peakName": "Veliki Talir",
      "altitude": 2281,
      "mountainLink": "https://hory.app/mountain/124084-veliki-talir",
      "source": "https://cs.hory.app/area/717-goriska-regija#window.PARAMS.areaMountains"
    },
    {
      "lat": 46.4110612,
      "lon": 13.6725524,
      "name": "Vrh Zelenic",
      "peakName": "Vrh Zelenic",
      "altitude": 2278,
      "mountainLink": "https://hory.app/mountain/124085-vrh-zelenic",
      "source": "https://cs.hory.app/area/717-goriska-regija#window.PARAMS.areaMountains"
    },
    {
      "lat": 46.377517,
      "lon": 13.5175395,
      "name": "Mala Črnelska špica",
      "peakName": "Mala Črnelska špica",
      "altitude": 2277,
      "mountainLink": "https://hory.app/mountain/124086-mala-crnelska-spica",
      "source": "https://cs.hory.app/area/717-goriska-regija#window.PARAMS.areaMountains"
    },
    {
      "lat": 46.3582132,
      "lon": 13.4740609,
      "name": "Zelena glava",
      "peakName": "Zelena glava",
      "altitude": 2268,
      "mountainLink": "https://hory.app/mountain/124090-zelena-glava",
      "source": "https://cs.hory.app/area/717-goriska-regija#window.PARAMS.areaMountains"
    },
    {
      "lat": 46.4452077,
      "lon": 13.6506708,
      "name": "Rateški Mali Mangart / Piccolo Mangart",
      "peakName": "Rateški Mali Mangart / Piccolo Mangart",
      "altitude": 2263,
      "mountainLink": "https://hory.app/mountain/124095-rateski-mali-mangart-piccolo-mangart",
      "source": "https://cs.hory.app/area/717-goriska-regija#window.PARAMS.areaMountains"
    },
    {
      "lat": 46.3986813,
      "lon": 13.6409364,
      "name": "Morež",
      "peakName": "Morež",
      "altitude": 2261,
      "mountainLink": "https://hory.app/mountain/124096-morez",
      "source": "https://cs.hory.app/area/717-goriska-regija#window.PARAMS.areaMountains"
    },
    {
      "lat": 46.3374589,
      "lon": 13.7437022,
      "name": "Travnik",
      "peakName": "Travnik",
      "altitude": 2260,
      "mountainLink": "https://hory.app/mountain/124097-travnik",
      "source": "https://cs.hory.app/area/717-goriska-regija#window.PARAMS.areaMountains"
    },
    {
      "lat": 46.4246576,
      "lon": 13.7119138,
      "name": "Vrh Travnika",
      "peakName": "Vrh Travnika",
      "altitude": 2251,
      "mountainLink": "https://hory.app/mountain/124100-vrh-travnika",
      "source": "https://cs.hory.app/area/717-goriska-regija#window.PARAMS.areaMountains"
    },
    {
      "lat": 46.2662832,
      "lon": 13.6589151,
      "name": "Krn",
      "peakName": "Krn",
      "altitude": 2244,
      "mountainLink": "https://hory.app/mountain/124104-krn",
      "source": "https://cs.hory.app/area/717-goriska-regija#window.PARAMS.areaMountains"
    },
    {
      "lat": 46.3877654,
      "lon": 13.6184222,
      "name": "Oblica",
      "peakName": "Oblica",
      "altitude": 2240,
      "mountainLink": "https://hory.app/mountain/124106-oblica",
      "source": "https://cs.hory.app/area/717-goriska-regija#window.PARAMS.areaMountains"
    },
    {
      "lat": 46.3616488,
      "lon": 13.4841782,
      "name": "Vrh Škrbinice",
      "peakName": "Vrh Škrbinice",
      "altitude": 2235,
      "mountainLink": "https://hory.app/mountain/124112-vrh-skrbinice",
      "source": "https://cs.hory.app/area/717-goriska-regija#window.PARAMS.areaMountains"
    },
    {
      "lat": 46.3860068,
      "lon": 13.6138553,
      "name": "Vrh Krnice",
      "peakName": "Vrh Krnice",
      "altitude": 2234,
      "mountainLink": "https://hory.app/mountain/124113-vrh-krnice",
      "source": "https://cs.hory.app/area/717-goriska-regija#window.PARAMS.areaMountains"
    },
    {
      "lat": 46.4037373,
      "lon": 13.779704,
      "name": "Prevčev stolp",
      "peakName": "Prevčev stolp",
      "altitude": 2228,
      "mountainLink": "https://hory.app/mountain/124117-prevcev-stolp",
      "source": "https://cs.hory.app/area/717-goriska-regija#window.PARAMS.areaMountains"
    },
    {
      "lat": 46.3953597,
      "lon": 13.8031453,
      "name": "Šplevta",
      "peakName": "Šplevta",
      "altitude": 2223,
      "mountainLink": "https://hory.app/mountain/124119-splevta",
      "source": "https://cs.hory.app/area/717-goriska-regija#window.PARAMS.areaMountains"
    },
    {
      "lat": 46.399768,
      "lon": 13.6780724,
      "name": "Mali Skutnik",
      "peakName": "Mali Skutnik",
      "altitude": 2217,
      "mountainLink": "https://hory.app/mountain/124122-mali-skutnik",
      "source": "https://cs.hory.app/area/717-goriska-regija#window.PARAMS.areaMountains"
    },
    {
      "lat": 46.4040787,
      "lon": 13.7776679,
      "name": "Kanceljni",
      "peakName": "Kanceljni",
      "altitude": 2214,
      "mountainLink": "https://hory.app/mountain/124125-kanceljni",
      "source": "https://cs.hory.app/area/717-goriska-regija#window.PARAMS.areaMountains"
    },
    {
      "lat": 46.347546,
      "lon": 13.446241,
      "name": "Turn pod Črnim Voglom",
      "peakName": "Turn pod Črnim Voglom",
      "altitude": 2212,
      "mountainLink": "https://hory.app/mountain/124127-turn-pod-crnim-voglom",
      "source": "https://cs.hory.app/area/717-goriska-regija#window.PARAMS.areaMountains"
    },
    {
      "lat": 46.3672956,
      "lon": 13.5544036,
      "name": "Rombon",
      "peakName": "Rombon",
      "altitude": 2208,
      "mountainLink": "https://hory.app/mountain/124128-rombon",
      "source": "https://cs.hory.app/area/717-goriska-regija#window.PARAMS.areaMountains"
    },
    {
      "lat": 46.4024444,
      "lon": 13.6465334,
      "name": "Bedinji vrh",
      "peakName": "Bedinji vrh",
      "altitude": 2196,
      "mountainLink": "https://hory.app/mountain/124133-bedinji-vrh",
      "source": "https://cs.hory.app/area/717-goriska-regija#window.PARAMS.areaMountains"
    },
    {
      "lat": 46.4101513,
      "lon": 13.6760567,
      "name": "Špiček",
      "peakName": "Špiček",
      "altitude": 2194,
      "mountainLink": "https://hory.app/mountain/124134-spicek",
      "source": "https://cs.hory.app/area/717-goriska-regija#window.PARAMS.areaMountains"
    },
    {
      "lat": 46.4072374,
      "lon": 13.6540637,
      "name": "Bavh",
      "peakName": "Bavh",
      "altitude": 2188,
      "mountainLink": "https://hory.app/mountain/124135-bavh",
      "source": "https://cs.hory.app/area/717-goriska-regija#window.PARAMS.areaMountains"
    },
    {
      "lat": 46.4037037,
      "lon": 13.6492988,
      "name": "Vrh Goleževice",
      "peakName": "Vrh Goleževice",
      "altitude": 2187,
      "mountainLink": "https://hory.app/mountain/124136-vrh-golezevice",
      "source": "https://cs.hory.app/area/717-goriska-regija#window.PARAMS.areaMountains"
    },
    {
      "lat": 46.3630415,
      "lon": 13.797085,
      "name": "Vodnikov vršac",
      "peakName": "Vodnikov vršac",
      "altitude": 2186,
      "mountainLink": "https://hory.app/mountain/124137-vodnikov-vrsac",
      "source": "https://cs.hory.app/area/717-goriska-regija#window.PARAMS.areaMountains"
    },
    {
      "lat": 46.4164443,
      "lon": 13.6871624,
      "name": "Nad steno",
      "peakName": "Nad steno",
      "altitude": 2186,
      "mountainLink": "https://hory.app/mountain/124138-nad-steno",
      "source": "https://cs.hory.app/area/717-goriska-regija#window.PARAMS.areaMountains"
    },
    {
      "lat": 46.4101485,
      "lon": 13.6603903,
      "name": "Plešivec",
      "peakName": "Plešivec",
      "altitude": 2184,
      "mountainLink": "https://hory.app/mountain/124139-plesivec",
      "source": "https://cs.hory.app/area/717-goriska-regija#window.PARAMS.areaMountains"
    },
    {
      "lat": 46.3884352,
      "lon": 13.8042089,
      "name": "Mali Pihavec",
      "peakName": "Mali Pihavec",
      "altitude": 2182,
      "mountainLink": "https://hory.app/mountain/124140-mali-pihavec",
      "source": "https://cs.hory.app/area/717-goriska-regija#window.PARAMS.areaMountains"
    },
    {
      "lat": 46.264356,
      "lon": 13.6770486,
      "name": "Vrh nad Peski",
      "peakName": "Vrh nad Peski",
      "altitude": 2176,
      "mountainLink": "https://hory.app/mountain/124145-vrh-nad-peski",
      "source": "https://cs.hory.app/area/717-goriska-regija#window.PARAMS.areaMountains"
    },
    {
      "lat": 46.3519884,
      "lon": 13.4586288,
      "name": "Mali Talir",
      "peakName": "Mali Talir",
      "altitude": 2173,
      "mountainLink": "https://hory.app/mountain/124147-mali-talir",
      "source": "https://cs.hory.app/area/717-goriska-regija#window.PARAMS.areaMountains"
    },
    {
      "lat": 46.3865862,
      "lon": 13.6703741,
      "name": "Skutnik",
      "peakName": "Skutnik",
      "altitude": 2172,
      "mountainLink": "https://hory.app/mountain/124148-skutnik",
      "source": "https://cs.hory.app/area/717-goriska-regija#window.PARAMS.areaMountains"
    },
    {
      "lat": 46.3891885,
      "lon": 13.6701465,
      "name": "Špičica",
      "peakName": "Špičica",
      "altitude": 2172,
      "mountainLink": "https://hory.app/mountain/124149-spicica",
      "source": "https://cs.hory.app/area/717-goriska-regija#window.PARAMS.areaMountains"
    },
    {
      "lat": 46.3384489,
      "lon": 13.4520453,
      "name": "Zelena čuklja",
      "peakName": "Zelena čuklja",
      "altitude": 2170,
      "mountainLink": "https://hory.app/mountain/124150-zelena-cuklja",
      "source": "https://cs.hory.app/area/717-goriska-regija#window.PARAMS.areaMountains"
    },
    {
      "lat": 46.4419788,
      "lon": 13.6338159,
      "name": "Visoka špica / Cima alta di Valromana",
      "peakName": "Visoka špica / Cima alta di Valromana",
      "altitude": 2166,
      "mountainLink": "https://hory.app/mountain/124151-visoka-spica-cima-alta-di-valromana",
      "source": "https://cs.hory.app/area/717-goriska-regija#window.PARAMS.areaMountains"
    },
    {
      "lat": 46.3600801,
      "lon": 13.4887715,
      "name": "Veliki Stador",
      "peakName": "Veliki Stador",
      "altitude": 2165,
      "mountainLink": "https://hory.app/mountain/124152-veliki-stador",
      "source": "https://cs.hory.app/area/717-goriska-regija#window.PARAMS.areaMountains"
    },
    {
      "lat": 46.2632143,
      "lon": 13.6682359,
      "name": "Batognica",
      "peakName": "Batognica",
      "altitude": 2164,
      "mountainLink": "https://hory.app/mountain/124153-batognica",
      "source": "https://cs.hory.app/area/717-goriska-regija#window.PARAMS.areaMountains"
    },
    {
      "lat": 46.3931697,
      "lon": 13.6700123,
      "name": "Nizki vrh",
      "peakName": "Nizki vrh",
      "altitude": 2162,
      "mountainLink": "https://hory.app/mountain/124154-nizki-vrh",
      "source": "https://cs.hory.app/area/717-goriska-regija#window.PARAMS.areaMountains"
    },
    {
      "lat": 46.3328901,
      "lon": 13.4490077,
      "name": "Velika Baba / Baba grande",
      "peakName": "Velika Baba / Baba grande",
      "altitude": 2161,
      "mountainLink": "https://hory.app/mountain/124155-velika-baba-baba-grande",
      "source": "https://cs.hory.app/area/717-goriska-regija#window.PARAMS.areaMountains"
    },
    {
      "lat": 46.359385,
      "lon": 13.490468,
      "name": "Vrh Jerebčeve police",
      "peakName": "Vrh Jerebčeve police",
      "altitude": 2161,
      "mountainLink": "https://hory.app/mountain/124156-vrh-jerebceve-police",
      "source": "https://cs.hory.app/area/717-goriska-regija#window.PARAMS.areaMountains"
    },
    {
      "lat": 46.4339252,
      "lon": 13.6548874,
      "name": "Na Lopi",
      "peakName": "Na Lopi",
      "altitude": 2161,
      "mountainLink": "https://hory.app/mountain/124157-na-lopi",
      "source": "https://cs.hory.app/area/717-goriska-regija#window.PARAMS.areaMountains"
    },
    {
      "lat": 46.3626866,
      "lon": 13.6597427,
      "name": "Vrh Brda",
      "peakName": "Vrh Brda",
      "altitude": 2152,
      "mountainLink": "https://hory.app/mountain/124158-vrh-brda",
      "source": "https://cs.hory.app/area/717-goriska-regija#window.PARAMS.areaMountains"
    },
    {
      "lat": 46.4369086,
      "lon": 13.6728474,
      "name": "Stop",
      "peakName": "Stop",
      "altitude": 2147,
      "mountainLink": "https://hory.app/mountain/124160-stop",
      "source": "https://cs.hory.app/area/717-goriska-regija#window.PARAMS.areaMountains"
    },
    {
      "lat": 46.2818915,
      "lon": 13.6508606,
      "name": "Krnčica",
      "peakName": "Krnčica",
      "altitude": 2142,
      "mountainLink": "https://hory.app/mountain/124162-krncica",
      "source": "https://cs.hory.app/area/717-goriska-regija#window.PARAMS.areaMountains"
    },
    {
      "lat": 46.3342039,
      "lon": 13.7325627,
      "name": "Travniški Rob",
      "peakName": "Travniški Rob",
      "altitude": 2142,
      "mountainLink": "https://hory.app/mountain/124163-travniski-rob",
      "source": "https://cs.hory.app/area/717-goriska-regija#window.PARAMS.areaMountains"
    },
    {
      "lat": 46.3916638,
      "lon": 13.6766267,
      "name": "Pelc za Rušo",
      "peakName": "Pelc za Rušo",
      "altitude": 2139,
      "mountainLink": "https://hory.app/mountain/124165-pelc-za-ruso",
      "source": "https://cs.hory.app/area/717-goriska-regija#window.PARAMS.areaMountains"
    },
    {
      "lat": 46.3499575,
      "lon": 13.4551996,
      "name": "Glava nad Laštom",
      "peakName": "Glava nad Laštom",
      "altitude": 2137,
      "mountainLink": "https://hory.app/mountain/124166-glava-nad-lastom",
      "source": "https://cs.hory.app/area/717-goriska-regija#window.PARAMS.areaMountains"
    },
    {
      "lat": 46.3954561,
      "lon": 13.6732323,
      "name": "Zadnji Pelc",
      "peakName": "Zadnji Pelc",
      "altitude": 2137,
      "mountainLink": "https://hory.app/mountain/124167-zadnji-pelc",
      "source": "https://cs.hory.app/area/717-goriska-regija#window.PARAMS.areaMountains"
    },
    {
      "lat": 46.4007446,
      "lon": 13.679274,
      "name": "Griva",
      "peakName": "Griva",
      "altitude": 2137,
      "mountainLink": "https://hory.app/mountain/124168-griva",
      "source": "https://cs.hory.app/area/717-goriska-regija#window.PARAMS.areaMountains"
    },
    {
      "lat": 46.3588056,
      "lon": 13.4923375,
      "name": "Stador",
      "peakName": "Stador",
      "altitude": 2136,
      "mountainLink": "https://hory.app/mountain/124169-stador",
      "source": "https://cs.hory.app/area/717-goriska-regija#window.PARAMS.areaMountains"
    },
    {
      "lat": 46.2754848,
      "lon": 13.6541881,
      "name": "Srednji vrh",
      "peakName": "Srednji vrh",
      "altitude": 2134,
      "mountainLink": "https://hory.app/mountain/124170-srednji-vrh",
      "source": "https://cs.hory.app/area/717-goriska-regija#window.PARAMS.areaMountains"
    },
    {
      "lat": 46.4020856,
      "lon": 13.7769145,
      "name": "Vzhodni stolp Kanceljnov",
      "peakName": "Vzhodni stolp Kanceljnov",
      "altitude": 2127,
      "mountainLink": "https://hory.app/mountain/124176-vzhodni-stolp-kanceljnov",
      "source": "https://cs.hory.app/area/717-goriska-regija#window.PARAMS.areaMountains"
    },
    {
      "lat": 46.3336915,
      "lon": 13.4605882,
      "name": "Veliki Babanski skedenj",
      "peakName": "Veliki Babanski skedenj",
      "altitude": 2119,
      "mountainLink": "https://hory.app/mountain/124179-veliki-babanski-skedenj",
      "source": "https://cs.hory.app/area/717-goriska-regija#window.PARAMS.areaMountains"
    },
    {
      "lat": 46.3756184,
      "lon": 13.667357,
      "name": "Šmihelovec",
      "peakName": "Šmihelovec",
      "altitude": 2118,
      "mountainLink": "https://hory.app/mountain/124180-smihelovec",
      "source": "https://cs.hory.app/area/717-goriska-regija#window.PARAMS.areaMountains"
    },
    {
      "lat": 46.3860889,
      "lon": 13.7095943,
      "name": "Trentski Pelc",
      "peakName": "Trentski Pelc",
      "altitude": 2116,
      "mountainLink": "https://hory.app/mountain/124181-trentski-pelc",
      "source": "https://cs.hory.app/area/717-goriska-regija#window.PARAMS.areaMountains"
    },
    {
      "lat": 46.3482431,
      "lon": 13.4683491,
      "name": "Velika Gnila glava",
      "peakName": "Velika Gnila glava",
      "altitude": 2114,
      "mountainLink": "https://hory.app/mountain/124183-velika-gnila-glava",
      "source": "https://cs.hory.app/area/717-goriska-regija#window.PARAMS.areaMountains"
    },
    {
      "lat": 46.3836269,
      "lon": 13.6670941,
      "name": "Veliki Jelenk",
      "peakName": "Veliki Jelenk",
      "altitude": 2113,
      "mountainLink": "https://hory.app/mountain/124185-veliki-jelenk",
      "source": "https://cs.hory.app/area/717-goriska-regija#window.PARAMS.areaMountains"
    },
    {
      "lat": 46.4003211,
      "lon": 13.6816907,
      "name": "Vršac",
      "peakName": "Vršac",
      "altitude": 2113,
      "mountainLink": "https://hory.app/mountain/124186-vrsac",
      "source": "https://cs.hory.app/area/717-goriska-regija#window.PARAMS.areaMountains"
    },
    {
      "lat": 46.4290059,
      "lon": 13.7283075,
      "name": "Suhi vrh",
      "peakName": "Suhi vrh",
      "altitude": 2109,
      "mountainLink": "https://hory.app/mountain/124187-suhi-vrh",
      "source": "https://cs.hory.app/area/717-goriska-regija#window.PARAMS.areaMountains"
    },
    {
      "lat": 46.3998041,
      "lon": 13.7707502,
      "name": "Goličica",
      "peakName": "Goličica",
      "altitude": 2108,
      "mountainLink": "https://hory.app/mountain/124188-golicica",
      "source": "https://cs.hory.app/area/717-goriska-regija#window.PARAMS.areaMountains"
    },
    {
      "lat": 46.3787371,
      "lon": 13.6991552,
      "name": "Srebrnjak",
      "peakName": "Srebrnjak",
      "altitude": 2092,
      "mountainLink": "https://hory.app/mountain/124202-srebrnjak",
      "source": "https://cs.hory.app/area/717-goriska-regija#window.PARAMS.areaMountains"
    },
    {
      "lat": 46.3791491,
      "lon": 13.6705273,
      "name": "Zagorelec",
      "peakName": "Zagorelec",
      "altitude": 2090,
      "mountainLink": "https://hory.app/mountain/124203-zagorelec",
      "source": "https://cs.hory.app/area/717-goriska-regija#window.PARAMS.areaMountains"
    },
    {
      "lat": 46.3845705,
      "lon": 13.6591253,
      "name": "Veliki Pihavec",
      "peakName": "Veliki Pihavec",
      "altitude": 2090,
      "mountainLink": "https://hory.app/mountain/124204-veliki-pihavec",
      "source": "https://cs.hory.app/area/717-goriska-regija#window.PARAMS.areaMountains"
    },
    {
      "lat": 46.4240567,
      "lon": 13.7185979,
      "name": "Vrh Polic",
      "peakName": "Vrh Polic",
      "altitude": 2087,
      "mountainLink": "https://hory.app/mountain/124207-vrh-polic",
      "source": "https://cs.hory.app/area/717-goriska-regija#window.PARAMS.areaMountains"
    },
    {
      "lat": 46.3460287,
      "lon": 13.4637948,
      "name": "Mala Gnila glava",
      "peakName": "Mala Gnila glava",
      "altitude": 2086,
      "mountainLink": "https://hory.app/mountain/124208-mala-gnila-glava",
      "source": "https://cs.hory.app/area/717-goriska-regija#window.PARAMS.areaMountains"
    },
    {
      "lat": 46.3690894,
      "lon": 13.782333,
      "name": "Zadnjiški Ozebnik",
      "peakName": "Zadnjiški Ozebnik",
      "altitude": 2083,
      "mountainLink": "https://hory.app/mountain/124210-zadnjiski-ozebnik",
      "source": "https://cs.hory.app/area/717-goriska-regija#window.PARAMS.areaMountains"
    },
    {
      "lat": 46.2833016,
      "lon": 13.6536035,
      "name": "Skutnik",
      "peakName": "Skutnik",
      "altitude": 2074,
      "mountainLink": "https://hory.app/mountain/124220-skutnik",
      "source": "https://cs.hory.app/area/717-goriska-regija#window.PARAMS.areaMountains"
    },
    {
      "lat": 46.3824908,
      "lon": 13.6571109,
      "name": "Mali Pihavec",
      "peakName": "Mali Pihavec",
      "altitude": 2074,
      "mountainLink": "https://hory.app/mountain/124221-mali-pihavec",
      "source": "https://cs.hory.app/area/717-goriska-regija#window.PARAMS.areaMountains"
    },
    {
      "lat": 46.4065357,
      "lon": 13.7796181,
      "name": "Zidna stena",
      "peakName": "Zidna stena",
      "altitude": 2059,
      "mountainLink": "https://hory.app/mountain/124227-zidna-stena",
      "source": "https://cs.hory.app/area/717-goriska-regija#window.PARAMS.areaMountains"
    },
    {
      "lat": 46.3459759,
      "lon": 13.4565997,
      "name": "Glava nad Skalo",
      "peakName": "Glava nad Skalo",
      "altitude": 2054,
      "mountainLink": "https://hory.app/mountain/124230-glava-nad-skalo",
      "source": "https://cs.hory.app/area/717-goriska-regija#window.PARAMS.areaMountains"
    },
    {
      "lat": 46.3865928,
      "lon": 13.6608902,
      "name": "Oplačnica",
      "peakName": "Oplačnica",
      "altitude": 2052,
      "mountainLink": "https://hory.app/mountain/124232-oplacnica",
      "source": "https://cs.hory.app/area/717-goriska-regija#window.PARAMS.areaMountains"
    },
    {
      "lat": 46.3667495,
      "lon": 13.5099038,
      "name": "Pri Banderi",
      "peakName": "Pri Banderi",
      "altitude": 2051,
      "mountainLink": "https://hory.app/mountain/124233-pri-banderi",
      "source": "https://cs.hory.app/area/717-goriska-regija#window.PARAMS.areaMountains"
    },
    {
      "lat": 46.4017139,
      "lon": 13.8006708,
      "name": "Griva",
      "peakName": "Griva",
      "altitude": 2050,
      "mountainLink": "https://hory.app/mountain/124235-griva",
      "source": "https://cs.hory.app/area/717-goriska-regija#window.PARAMS.areaMountains"
    },
    {
      "lat": 46.3642343,
      "lon": 13.5110373,
      "name": "Jelenk",
      "peakName": "Jelenk",
      "altitude": 2049,
      "mountainLink": "https://hory.app/mountain/124237-jelenk",
      "source": "https://cs.hory.app/area/717-goriska-regija#window.PARAMS.areaMountains"
    },
    {
      "lat": 46.4016066,
      "lon": 13.7741142,
      "name": "Germlajt",
      "peakName": "Germlajt",
      "altitude": 2048,
      "mountainLink": "https://hory.app/mountain/124239-germlajt",
      "source": "https://cs.hory.app/area/717-goriska-regija#window.PARAMS.areaMountains"
    },
    {
      "lat": 46.2607541,
      "lon": 13.7635812,
      "name": "Zeleni vrh",
      "peakName": "Zeleni vrh",
      "altitude": 2047,
      "mountainLink": "https://hory.app/mountain/124240-zeleni-vrh",
      "source": "https://cs.hory.app/area/717-goriska-regija#window.PARAMS.areaMountains"
    },
    {
      "lat": 46.4185621,
      "lon": 13.7667937,
      "name": "Turn",
      "peakName": "Turn",
      "altitude": 2045,
      "mountainLink": "https://hory.app/mountain/124241-turn",
      "source": "https://cs.hory.app/area/717-goriska-regija#window.PARAMS.areaMountains"
    },
    {
      "lat": 46.4105212,
      "lon": 13.783531,
      "name": "Lešarjeva peč",
      "peakName": "Lešarjeva peč",
      "altitude": 2040,
      "mountainLink": "https://hory.app/mountain/124243-lesarjeva-pec",
      "source": "https://cs.hory.app/area/717-goriska-regija#window.PARAMS.areaMountains"
    },
    {
      "lat": 46.2883059,
      "lon": 13.6728493,
      "name": "Veliki Lemež",
      "peakName": "Veliki Lemež",
      "altitude": 2035,
      "mountainLink": "https://hory.app/mountain/124248-veliki-lemez",
      "source": "https://cs.hory.app/area/717-goriska-regija#window.PARAMS.areaMountains"
    },
    {
      "lat": 46.365098,
      "lon": 13.7761098,
      "name": "Veliki Konj",
      "peakName": "Veliki Konj",
      "altitude": 2034,
      "mountainLink": "https://hory.app/mountain/124249-veliki-konj",
      "source": "https://cs.hory.app/area/717-goriska-regija#window.PARAMS.areaMountains"
    },
    {
      "lat": 46.3411395,
      "lon": 13.4628573,
      "name": "Glava nad Malim dolom",
      "peakName": "Glava nad Malim dolom",
      "altitude": 2032,
      "mountainLink": "https://hory.app/mountain/124251-glava-nad-malim-dolom",
      "source": "https://cs.hory.app/area/717-goriska-regija#window.PARAMS.areaMountains"
    },
    {
      "lat": 46.2600139,
      "lon": 13.6774701,
      "name": "Srednji vrh",
      "peakName": "Srednji vrh",
      "altitude": 2032,
      "mountainLink": "https://hory.app/mountain/124252-srednji-vrh",
      "source": "https://cs.hory.app/area/717-goriska-regija#window.PARAMS.areaMountains"
    },
    {
      "lat": 46.3928132,
      "lon": 13.640522,
      "name": "Stador",
      "peakName": "Stador",
      "altitude": 2025,
      "mountainLink": "https://hory.app/mountain/124263-stador",
      "source": "https://cs.hory.app/area/717-goriska-regija#window.PARAMS.areaMountains"
    },
    {
      "lat": 46.3745895,
      "lon": 13.5286117,
      "name": "Vrh Ribežnov",
      "peakName": "Vrh Ribežnov",
      "altitude": 2024,
      "mountainLink": "https://hory.app/mountain/124265-vrh-ribeznov",
      "source": "https://cs.hory.app/area/717-goriska-regija#window.PARAMS.areaMountains"
    },
    {
      "lat": 46.3409377,
      "lon": 13.4606337,
      "name": "Kačarjeva glava",
      "peakName": "Kačarjeva glava",
      "altitude": 2022,
      "mountainLink": "https://hory.app/mountain/124267-kacarjeva-glava",
      "source": "https://cs.hory.app/area/717-goriska-regija#window.PARAMS.areaMountains"
    },
    {
      "lat": 46.329489,
      "lon": 13.7217739,
      "name": "Kuk",
      "peakName": "Kuk",
      "altitude": 2019,
      "mountainLink": "https://hory.app/mountain/124268-kuk",
      "source": "https://cs.hory.app/area/717-goriska-regija#window.PARAMS.areaMountains"
    },
    {
      "lat": 46.2552357,
      "lon": 13.6888915,
      "name": "Škofič",
      "peakName": "Škofič",
      "altitude": 2013,
      "mountainLink": "https://hory.app/mountain/124273-skofic",
      "source": "https://cs.hory.app/area/717-goriska-regija#window.PARAMS.areaMountains"
    },
    {
      "lat": 46.2946246,
      "lon": 13.7082713,
      "name": "Velika Baba",
      "peakName": "Velika Baba",
      "altitude": 2013,
      "mountainLink": "https://hory.app/mountain/124274-velika-baba",
      "source": "https://cs.hory.app/area/717-goriska-regija#window.PARAMS.areaMountains"
    },
    {
      "lat": 46.2867989,
      "lon": 13.6495106,
      "name": "Lopatnik",
      "peakName": "Lopatnik",
      "altitude": 2012,
      "mountainLink": "https://hory.app/mountain/124277-lopatnik",
      "source": "https://cs.hory.app/area/717-goriska-regija#window.PARAMS.areaMountains"
    },
    {
      "lat": 46.3260572,
      "lon": 13.7324971,
      "name": "Rušje",
      "peakName": "Rušje",
      "altitude": 2008,
      "mountainLink": "https://hory.app/mountain/124279-rusje",
      "source": "https://cs.hory.app/area/717-goriska-regija#window.PARAMS.areaMountains"
    },
    {
      "lat": 46.3927145,
      "lon": 13.7196979,
      "name": "Plešivec",
      "peakName": "Plešivec",
      "altitude": 2008,
      "mountainLink": "https://hory.app/mountain/124280-plesivec",
      "source": "https://cs.hory.app/area/717-goriska-regija#window.PARAMS.areaMountains"
    },
    {
      "lat": 46.4011621,
      "lon": 13.785503,
      "name": "Glava pod Planjo",
      "peakName": "Glava pod Planjo",
      "altitude": 2007,
      "mountainLink": "https://hory.app/mountain/124281-glava-pod-planjo",
      "source": "https://cs.hory.app/area/717-goriska-regija#window.PARAMS.areaMountains"
    },
    {
      "lat": 46.2773744,
      "lon": 13.7362383,
      "name": "Mahavšček",
      "peakName": "Mahavšček",
      "altitude": 2005,
      "mountainLink": "https://hory.app/mountain/124282-mahavscek",
      "source": "https://cs.hory.app/area/717-goriska-regija#window.PARAMS.areaMountains"
    },
    {
      "lat": 46.2817847,
      "lon": 13.6605673,
      "name": "Griva",
      "peakName": "Griva",
      "altitude": 1999,
      "mountainLink": "https://hory.app/mountain/124288-griva",
      "source": "https://cs.hory.app/area/717-goriska-regija#window.PARAMS.areaMountains"
    },
    {
      "lat": 46.4124722,
      "lon": 13.6700392,
      "name": "Veliki Turn",
      "peakName": "Veliki Turn",
      "altitude": 1998,
      "mountainLink": "https://hory.app/mountain/124291-veliki-turn",
      "source": "https://cs.hory.app/area/717-goriska-regija#window.PARAMS.areaMountains"
    },
    {
      "lat": 46.362047,
      "lon": 13.6545997,
      "name": "Vrh Ruš",
      "peakName": "Vrh Ruš",
      "altitude": 1995,
      "mountainLink": "https://hory.app/mountain/124292-vrh-rus",
      "source": "https://cs.hory.app/area/717-goriska-regija#window.PARAMS.areaMountains"
    },
    {
      "lat": 46.3412617,
      "lon": 13.4684309,
      "name": "Glava nad Kraljiščem",
      "peakName": "Glava nad Kraljiščem",
      "altitude": 1992,
      "mountainLink": "https://hory.app/mountain/124295-glava-nad-kraljiscem",
      "source": "https://cs.hory.app/area/717-goriska-regija#window.PARAMS.areaMountains"
    },
    {
      "lat": 46.4321681,
      "lon": 13.6385533,
      "name": "Mali vrh",
      "peakName": "Mali vrh",
      "altitude": 1992,
      "mountainLink": "https://hory.app/mountain/124296-mali-vrh",
      "source": "https://cs.hory.app/area/717-goriska-regija#window.PARAMS.areaMountains"
    },
    {
      "lat": 46.2506909,
      "lon": 13.7874537,
      "name": "Meja",
      "peakName": "Meja",
      "altitude": 1991,
      "mountainLink": "https://hory.app/mountain/124297-meja",
      "source": "https://cs.hory.app/area/717-goriska-regija#window.PARAMS.areaMountains"
    },
    {
      "lat": 46.3606993,
      "lon": 13.5113748,
      "name": "Vratni vrh",
      "peakName": "Vratni vrh",
      "altitude": 1983,
      "mountainLink": "https://hory.app/mountain/124302-vratni-vrh",
      "source": "https://cs.hory.app/area/717-goriska-regija#window.PARAMS.areaMountains"
    },
    {
      "lat": 46.3056815,
      "lon": 13.7030633,
      "name": "Kaluder",
      "peakName": "Kaluder",
      "altitude": 1980,
      "mountainLink": "https://hory.app/mountain/124306-kaluder",
      "source": "https://cs.hory.app/area/717-goriska-regija#window.PARAMS.areaMountains"
    },
    {
      "lat": 46.3898835,
      "lon": 13.5411548,
      "name": "Mogenza grande / Veliki Snežni vrh",
      "peakName": "Mogenza grande / Veliki Snežni vrh",
      "altitude": 1972,
      "mountainLink": "https://hory.app/mountain/124315-mogenza-grande-veliki-snezni-vrh",
      "source": "https://cs.hory.app/area/717-goriska-regija#window.PARAMS.areaMountains"
    },
    {
      "lat": 46.3586774,
      "lon": 13.4950083,
      "name": "Mali Stador",
      "peakName": "Mali Stador",
      "altitude": 1970,
      "mountainLink": "https://hory.app/mountain/124317-mali-stador",
      "source": "https://cs.hory.app/area/717-goriska-regija#window.PARAMS.areaMountains"
    },
    {
      "lat": 46.3823718,
      "lon": 13.605505,
      "name": "V Gradu",
      "peakName": "V Gradu",
      "altitude": 1966,
      "mountainLink": "https://hory.app/mountain/124322-v-gradu",
      "source": "https://cs.hory.app/area/717-goriska-regija#window.PARAMS.areaMountains"
    },
    {
      "lat": 46.3545089,
      "lon": 13.640975,
      "name": "Vrh Ovčje planje",
      "peakName": "Vrh Ovčje planje",
      "altitude": 1965,
      "mountainLink": "https://hory.app/mountain/124323-vrh-ovcje-planje",
      "source": "https://cs.hory.app/area/717-goriska-regija#window.PARAMS.areaMountains"
    },
    {
      "lat": 46.2890506,
      "lon": 13.6439049,
      "name": "Oblo Brdo",
      "peakName": "Oblo Brdo",
      "altitude": 1964,
      "mountainLink": "https://hory.app/mountain/124328-oblo-brdo",
      "source": "https://cs.hory.app/area/717-goriska-regija#window.PARAMS.areaMountains"
    },
    {
      "lat": 46.3331229,
      "lon": 13.4677362,
      "name": "Mali Babanski skedenj",
      "peakName": "Mali Babanski skedenj",
      "altitude": 1963,
      "mountainLink": "https://hory.app/mountain/124329-mali-babanski-skedenj",
      "source": "https://cs.hory.app/area/717-goriska-regija#window.PARAMS.areaMountains"
    },
    {
      "lat": 46.2277098,
      "lon": 13.8652258,
      "name": "Rodica",
      "peakName": "Rodica",
      "altitude": 1963,
      "mountainLink": "https://hory.app/mountain/124330-rodica",
      "source": "https://cs.hory.app/area/717-goriska-regija#window.PARAMS.areaMountains"
    },
    {
      "lat": 46.3609678,
      "lon": 13.5160836,
      "name": "Plešivec",
      "peakName": "Plešivec",
      "altitude": 1962,
      "mountainLink": "https://hory.app/mountain/124331-plesivec",
      "source": "https://cs.hory.app/area/717-goriska-regija#window.PARAMS.areaMountains"
    },
    {
      "lat": 46.2994837,
      "lon": 13.7049362,
      "name": "Črna Prst",
      "peakName": "Črna Prst",
      "altitude": 1959,
      "mountainLink": "https://hory.app/mountain/124332-crna-prst",
      "source": "https://cs.hory.app/area/717-goriska-regija#window.PARAMS.areaMountains"
    },
    {
      "lat": 46.2870757,
      "lon": 13.7117122,
      "name": "Velika Montura",
      "peakName": "Velika Montura",
      "altitude": 1958,
      "mountainLink": "https://hory.app/mountain/124336-velika-montura",
      "source": "https://cs.hory.app/area/717-goriska-regija#window.PARAMS.areaMountains"
    },
    {
      "lat": 46.4133561,
      "lon": 13.7838694,
      "name": "Lešarjev zob",
      "peakName": "Lešarjev zob",
      "altitude": 1956,
      "mountainLink": "https://hory.app/mountain/124338-lesarjev-zob",
      "source": "https://cs.hory.app/area/717-goriska-regija#window.PARAMS.areaMountains"
    },
    {
      "lat": 46.3714306,
      "lon": 13.5354501,
      "name": "Prišna glava",
      "peakName": "Prišna glava",
      "altitude": 1953,
      "mountainLink": "https://hory.app/mountain/124343-prisna-glava",
      "source": "https://cs.hory.app/area/717-goriska-regija#window.PARAMS.areaMountains"
    },
    {
      "lat": 46.2740215,
      "lon": 13.6857274,
      "name": "Mali Šmohor",
      "peakName": "Mali Šmohor",
      "altitude": 1944,
      "mountainLink": "https://hory.app/mountain/124346-mali-smohor",
      "source": "https://cs.hory.app/area/717-goriska-regija#window.PARAMS.areaMountains"
    },
    {
      "lat": 46.438014,
      "lon": 13.5960656,
      "name": "Veliki Grintavec / Grintavec",
      "peakName": "Veliki Grintavec / Grintavec",
      "altitude": 1943,
      "mountainLink": "https://hory.app/mountain/124349-veliki-grintavec-grintavec",
      "source": "https://cs.hory.app/area/717-goriska-regija#window.PARAMS.areaMountains"
    },
    {
      "lat": 46.2262786,
      "lon": 13.8726827,
      "name": "Suha Rodica",
      "peakName": "Suha Rodica",
      "altitude": 1940,
      "mountainLink": "https://hory.app/mountain/124355-suha-rodica",
      "source": "https://cs.hory.app/area/717-goriska-regija#window.PARAMS.areaMountains"
    },
    {
      "lat": 46.2793194,
      "lon": 13.6871166,
      "name": "Veliki Šmohor",
      "peakName": "Veliki Šmohor",
      "altitude": 1939,
      "mountainLink": "https://hory.app/mountain/124356-veliki-smohor",
      "source": "https://cs.hory.app/area/717-goriska-regija#window.PARAMS.areaMountains"
    },
    {
      "lat": 46.2263955,
      "lon": 13.8972437,
      "name": "Velki Matajurski vrh",
      "peakName": "Velki Matajurski vrh",
      "altitude": 1936,
      "mountainLink": "https://hory.app/mountain/124358-velki-matajurski-vrh",
      "source": "https://cs.hory.app/area/717-goriska-regija#window.PARAMS.areaMountains"
    },
    {
      "lat": 46.4292851,
      "lon": 13.7372728,
      "name": "Gumnó",
      "peakName": "Gumnó",
      "altitude": 1933,
      "mountainLink": "https://hory.app/mountain/124360-gumno",
      "source": "https://cs.hory.app/area/717-goriska-regija#window.PARAMS.areaMountains"
    },
    {
      "lat": 46.2572941,
      "lon": 13.6819741,
      "name": "Mali vrh",
      "peakName": "Mali vrh",
      "altitude": 1931,
      "mountainLink": "https://hory.app/mountain/124361-mali-vrh",
      "source": "https://cs.hory.app/area/717-goriska-regija#window.PARAMS.areaMountains"
    },
    {
      "lat": 46.2743659,
      "lon": 13.7452418,
      "name": "Vrh Škrli",
      "peakName": "Vrh Škrli",
      "altitude": 1925,
      "mountainLink": "https://hory.app/mountain/124370-vrh-skrli",
      "source": "https://cs.hory.app/area/717-goriska-regija#window.PARAMS.areaMountains"
    },
    {
      "lat": 46.2487802,
      "lon": 13.7916788,
      "name": "Vrh Hribcev",
      "peakName": "Vrh Hribcev",
      "altitude": 1923,
      "mountainLink": "https://hory.app/mountain/124372-vrh-hribcev",
      "source": "https://cs.hory.app/area/717-goriska-regija#window.PARAMS.areaMountains"
    },
    {
      "lat": 46.4416041,
      "lon": 13.610755,
      "name": "Mala Ruša / Punta dei Camosci",
      "peakName": "Mala Ruša / Punta dei Camosci",
      "altitude": 1922,
      "mountainLink": "https://hory.app/mountain/124374-mala-rusa-punta-dei-camosci",
      "source": "https://cs.hory.app/area/717-goriska-regija#window.PARAMS.areaMountains"
    },
    {
      "lat": 46.2901237,
      "lon": 13.7130833,
      "name": "Zelena Škrbina",
      "peakName": "Zelena Škrbina",
      "altitude": 1919,
      "mountainLink": "https://hory.app/mountain/124376-zelena-skrbina",
      "source": "https://cs.hory.app/area/717-goriska-regija#window.PARAMS.areaMountains"
    },
    {
      "lat": 46.2926474,
      "lon": 13.7318069,
      "name": "Vrh nad Gracijo",
      "peakName": "Vrh nad Gracijo",
      "altitude": 1917,
      "mountainLink": "https://hory.app/mountain/124379-vrh-nad-gracijo",
      "source": "https://cs.hory.app/area/717-goriska-regija#window.PARAMS.areaMountains"
    },
    {
      "lat": 46.4111458,
      "lon": 13.6690012,
      "name": "Mali Turn",
      "peakName": "Mali Turn",
      "altitude": 1916,
      "mountainLink": "https://hory.app/mountain/124381-mali-turn",
      "source": "https://cs.hory.app/area/717-goriska-regija#window.PARAMS.areaMountains"
    },
    {
      "lat": 46.2501495,
      "lon": 13.6962338,
      "name": "Rdeči rob",
      "peakName": "Rdeči rob",
      "altitude": 1912,
      "mountainLink": "https://hory.app/mountain/124383-rdeci-rob",
      "source": "https://cs.hory.app/area/717-goriska-regija#window.PARAMS.areaMountains"
    },
    {
      "lat": 46.3965975,
      "lon": 13.7708715,
      "name": "Čelo",
      "peakName": "Čelo",
      "altitude": 1910,
      "mountainLink": "https://hory.app/mountain/124388-celo",
      "source": "https://cs.hory.app/area/717-goriska-regija#window.PARAMS.areaMountains"
    },
    {
      "lat": 46.25323,
      "lon": 13.6857132,
      "name": "Maselnik",
      "peakName": "Maselnik",
      "altitude": 1903,
      "mountainLink": "https://hory.app/mountain/124391-maselnik",
      "source": "https://cs.hory.app/area/717-goriska-regija#window.PARAMS.areaMountains"
    },
    {
      "lat": 46.2968633,
      "lon": 13.6334182,
      "name": "Vršič",
      "peakName": "Vršič",
      "altitude": 1897,
      "mountainLink": "https://hory.app/mountain/124397-vrsic",
      "source": "https://cs.hory.app/area/717-goriska-regija#window.PARAMS.areaMountains"
    },
    {
      "lat": 46.2398063,
      "lon": 13.8094696,
      "name": "Vrh Krnic",
      "peakName": "Vrh Krnic",
      "altitude": 1896,
      "mountainLink": "https://hory.app/mountain/124399-vrh-krnic",
      "source": "https://cs.hory.app/area/717-goriska-regija#window.PARAMS.areaMountains"
    },
    {
      "lat": 46.3583006,
      "lon": 13.7388035,
      "name": "Velika Tičarica",
      "peakName": "Velika Tičarica",
      "altitude": 1893,
      "mountainLink": "https://hory.app/mountain/124401-velika-ticarica",
      "source": "https://cs.hory.app/area/717-goriska-regija#window.PARAMS.areaMountains"
    },
    {
      "lat": 46.2489124,
      "lon": 13.6940026,
      "name": "Veliki Stador",
      "peakName": "Veliki Stador",
      "altitude": 1892,
      "mountainLink": "https://hory.app/mountain/124402-veliki-stador",
      "source": "https://cs.hory.app/area/717-goriska-regija#window.PARAMS.areaMountains"
    },
    {
      "lat": 46.4364564,
      "lon": 13.592579,
      "name": "Torre Guarda",
      "peakName": "Torre Guarda",
      "altitude": 1889,
      "mountainLink": "https://hory.app/mountain/124405-torre-guarda",
      "source": "https://cs.hory.app/area/717-goriska-regija#window.PARAMS.areaMountains"
    },
    {
      "lat": 46.363248,
      "lon": 13.7708366,
      "name": "Velika glava",
      "peakName": "Velika glava",
      "altitude": 1883,
      "mountainLink": "https://hory.app/mountain/124408-velika-glava",
      "source": "https://cs.hory.app/area/717-goriska-regija#window.PARAMS.areaMountains"
    },
    {
      "lat": 46.4129373,
      "lon": 13.6684835,
      "name": "Mali Turn",
      "peakName": "Mali Turn",
      "altitude": 1882,
      "mountainLink": "https://hory.app/mountain/124410-mali-turn",
      "source": "https://cs.hory.app/area/717-goriska-regija#window.PARAMS.areaMountains"
    },
    {
      "lat": 46.4230195,
      "lon": 13.7244478,
      "name": "Kurja špičica",
      "peakName": "Kurja špičica",
      "altitude": 1882,
      "mountainLink": "https://hory.app/mountain/124411-kurja-spicica",
      "source": "https://cs.hory.app/area/717-goriska-regija#window.PARAMS.areaMountains"
    },
    {
      "lat": 46.2462064,
      "lon": 13.7626072,
      "name": "Tolminski Migovec",
      "peakName": "Tolminski Migovec",
      "altitude": 1881,
      "mountainLink": "https://hory.app/mountain/124412-tolminski-migovec",
      "source": "https://cs.hory.app/area/717-goriska-regija#window.PARAMS.areaMountains"
    },
    {
      "lat": 46.3282743,
      "lon": 13.4511012,
      "name": "Velika Kuhinja",
      "peakName": "Velika Kuhinja",
      "altitude": 1878,
      "mountainLink": "https://hory.app/mountain/124416-velika-kuhinja",
      "source": "https://cs.hory.app/area/717-goriska-regija#window.PARAMS.areaMountains"
    },
    {
      "lat": 46.3556776,
      "lon": 13.7522221,
      "name": "Čisti vrh",
      "peakName": "Čisti vrh",
      "altitude": 1875,
      "mountainLink": "https://hory.app/mountain/124420-cisti-vrh",
      "source": "https://cs.hory.app/area/717-goriska-regija#window.PARAMS.areaMountains"
    },
    {
      "lat": 46.3044791,
      "lon": 13.6314701,
      "name": "Lipnik",
      "peakName": "Lipnik",
      "altitude": 1870,
      "mountainLink": "https://hory.app/mountain/124427-lipnik",
      "source": "https://cs.hory.app/area/717-goriska-regija#window.PARAMS.areaMountains"
    },
    {
      "lat": 46.292337,
      "lon": 13.6836575,
      "name": "Debeljak",
      "peakName": "Debeljak",
      "altitude": 1870,
      "mountainLink": "https://hory.app/mountain/124428-debeljak",
      "source": "https://cs.hory.app/area/717-goriska-regija#window.PARAMS.areaMountains"
    },
    {
      "lat": 46.3780231,
      "lon": 13.65097,
      "name": "Obljak",
      "peakName": "Obljak",
      "altitude": 1867,
      "mountainLink": "https://hory.app/mountain/124429-obljak",
      "source": "https://cs.hory.app/area/717-goriska-regija#window.PARAMS.areaMountains"
    },
    {
      "lat": 46.2442361,
      "lon": 13.8026742,
      "name": "Vrh Planje",
      "peakName": "Vrh Planje",
      "altitude": 1863,
      "mountainLink": "https://hory.app/mountain/124433-vrh-planje",
      "source": "https://cs.hory.app/area/717-goriska-regija#window.PARAMS.areaMountains"
    },
    {
      "lat": 46.3731246,
      "lon": 13.7727689,
      "name": "Veliki Vršovec",
      "peakName": "Veliki Vršovec",
      "altitude": 1856,
      "mountainLink": "https://hory.app/mountain/124438-veliki-vrsovec",
      "source": "https://cs.hory.app/area/717-goriska-regija#window.PARAMS.areaMountains"
    },
    {
      "lat": 46.2298643,
      "lon": 13.8042063,
      "name": "Žabiški Kuk",
      "peakName": "Žabiški Kuk",
      "altitude": 1844,
      "mountainLink": "https://hory.app/mountain/124449-zabiski-kuk",
      "source": "https://cs.hory.app/area/717-goriska-regija#window.PARAMS.areaMountains"
    },
    {
      "lat": 46.4395179,
      "lon": 13.6152777,
      "name": "Velika Ruša",
      "peakName": "Velika Ruša",
      "altitude": 1838,
      "mountainLink": "https://hory.app/mountain/124455-velika-rusa",
      "source": "https://cs.hory.app/area/717-goriska-regija#window.PARAMS.areaMountains"
    },
    {
      "lat": 46.2494218,
      "lon": 13.702399,
      "name": "Vrh Slop",
      "peakName": "Vrh Slop",
      "altitude": 1827,
      "mountainLink": "https://hory.app/mountain/124461-vrh-slop",
      "source": "https://cs.hory.app/area/717-goriska-regija#window.PARAMS.areaMountains"
    },
    {
      "lat": 46.3978239,
      "lon": 13.7266681,
      "name": "Ušje",
      "peakName": "Ušje",
      "altitude": 1821,
      "mountainLink": "https://hory.app/mountain/124463-usje",
      "source": "https://cs.hory.app/area/717-goriska-regija#window.PARAMS.areaMountains"
    },
    {
      "lat": 46.3109829,
      "lon": 13.6298944,
      "name": "Hudi vrh",
      "peakName": "Hudi vrh",
      "altitude": 1808,
      "mountainLink": "https://hory.app/mountain/124474-hudi-vrh",
      "source": "https://cs.hory.app/area/717-goriska-regija#window.PARAMS.areaMountains"
    },
    {
      "lat": 46.4311495,
      "lon": 13.5869536,
      "name": "Veliki Hlebec / Grande Hlebeg",
      "peakName": "Veliki Hlebec / Grande Hlebeg",
      "altitude": 1799,
      "mountainLink": "https://hory.app/mountain/124480-veliki-hlebec-grande-hlebeg",
      "source": "https://cs.hory.app/area/717-goriska-regija#window.PARAMS.areaMountains"
    },
    {
      "lat": 46.3869424,
      "lon": 13.5301298,
      "name": "Škrbina pod Škrapljo",
      "peakName": "Škrbina pod Škrapljo",
      "altitude": 1796,
      "mountainLink": "https://hory.app/mountain/124483-skrbina-pod-skrapljo",
      "source": "https://cs.hory.app/area/717-goriska-regija#window.PARAMS.areaMountains"
    },
    {
      "lat": 46.2316725,
      "lon": 13.9371765,
      "name": "Rušni vrh",
      "peakName": "Rušni vrh",
      "altitude": 1787,
      "mountainLink": "https://hory.app/mountain/124485-rusni-vrh",
      "source": "https://cs.hory.app/area/717-goriska-regija#window.PARAMS.areaMountains"
    },
    {
      "lat": 46.412339,
      "lon": 13.663964,
      "name": "Turn v Malem ozebniku",
      "peakName": "Turn v Malem ozebniku",
      "altitude": 1778,
      "mountainLink": "https://hory.app/mountain/124491-turn-v-malem-ozebniku",
      "source": "https://cs.hory.app/area/717-goriska-regija#window.PARAMS.areaMountains"
    },
    {
      "lat": 46.2722056,
      "lon": 13.6995335,
      "name": "Malen",
      "peakName": "Malen",
      "altitude": 1775,
      "mountainLink": "https://hory.app/mountain/124494-malen",
      "source": "https://cs.hory.app/area/717-goriska-regija#window.PARAMS.areaMountains"
    },
    {
      "lat": 46.34396,
      "lon": 13.4829442,
      "name": "Veliki Skedenj",
      "peakName": "Veliki Skedenj",
      "altitude": 1770,
      "mountainLink": "https://hory.app/mountain/124495-veliki-skedenj",
      "source": "https://cs.hory.app/area/717-goriska-regija#window.PARAMS.areaMountains"
    },
    {
      "lat": 46.2893175,
      "lon": 13.5923173,
      "name": "Krasji vrh",
      "peakName": "Krasji vrh",
      "altitude": 1768,
      "mountainLink": "https://hory.app/mountain/124497-krasji-vrh",
      "source": "https://cs.hory.app/area/717-goriska-regija#window.PARAMS.areaMountains"
    },
    {
      "lat": 46.2950137,
      "lon": 13.5711217,
      "name": "Veliki vrh",
      "peakName": "Veliki vrh",
      "altitude": 1764,
      "mountainLink": "https://hory.app/mountain/124500-veliki-vrh",
      "source": "https://cs.hory.app/area/717-goriska-regija#window.PARAMS.areaMountains"
    },
    {
      "lat": 46.3853546,
      "lon": 13.5335,
      "name": "Škraplja",
      "peakName": "Škraplja",
      "altitude": 1761,
      "mountainLink": "https://hory.app/mountain/124506-skraplja",
      "source": "https://cs.hory.app/area/717-goriska-regija#window.PARAMS.areaMountains"
    },
    {
      "lat": 46.3586648,
      "lon": 13.5473511,
      "name": "Čukla",
      "peakName": "Čukla",
      "altitude": 1756,
      "mountainLink": "https://hory.app/mountain/124509-cukla",
      "source": "https://cs.hory.app/area/717-goriska-regija#window.PARAMS.areaMountains"
    },
    {
      "lat": 46.4276711,
      "lon": 13.7506449,
      "name": "Sovna glava",
      "peakName": "Sovna glava",
      "altitude": 1750,
      "mountainLink": "https://hory.app/mountain/124514-sovna-glava",
      "source": "https://cs.hory.app/area/717-goriska-regija#window.PARAMS.areaMountains"
    },
    {
      "lat": 46.4340698,
      "lon": 13.7465664,
      "name": "Vršič",
      "peakName": "Vršič",
      "altitude": 1737,
      "mountainLink": "https://hory.app/mountain/124524-vrsic",
      "source": "https://cs.hory.app/area/717-goriska-regija#window.PARAMS.areaMountains"
    },
    {
      "lat": 46.2518714,
      "lon": 13.705692,
      "name": "Naprst",
      "peakName": "Naprst",
      "altitude": 1733,
      "mountainLink": "https://hory.app/mountain/124526-naprst",
      "source": "https://cs.hory.app/area/717-goriska-regija#window.PARAMS.areaMountains"
    },
    {
      "lat": 46.2466778,
      "lon": 13.6901661,
      "name": "Mali Stador",
      "peakName": "Mali Stador",
      "altitude": 1731,
      "mountainLink": "https://hory.app/mountain/124528-mali-stador",
      "source": "https://cs.hory.app/area/717-goriska-regija#window.PARAMS.areaMountains"
    },
    {
      "lat": 46.396363,
      "lon": 13.6544692,
      "name": "Vršič",
      "peakName": "Vršič",
      "altitude": 1730,
      "mountainLink": "https://hory.app/mountain/124530-vrsic",
      "source": "https://cs.hory.app/area/717-goriska-regija#window.PARAMS.areaMountains"
    },
    {
      "lat": 46.3223215,
      "lon": 13.4389903,
      "name": "Monte Guarda / Skutnik",
      "peakName": "Monte Guarda / Skutnik",
      "altitude": 1720,
      "mountainLink": "https://hory.app/mountain/124533-monte-guarda-skutnik",
      "source": "https://cs.hory.app/area/717-goriska-regija#window.PARAMS.areaMountains"
    },
    {
      "lat": 46.2606906,
      "lon": 13.7006504,
      "name": "Veliki Kuntar",
      "peakName": "Veliki Kuntar",
      "altitude": 1712,
      "mountainLink": "https://hory.app/mountain/124540-veliki-kuntar",
      "source": "https://cs.hory.app/area/717-goriska-regija#window.PARAMS.areaMountains"
    },
    {
      "lat": 46.3561276,
      "lon": 13.5233378,
      "name": "Rogelj",
      "peakName": "Rogelj",
      "altitude": 1705,
      "mountainLink": "https://hory.app/mountain/124544-rogelj",
      "source": "https://cs.hory.app/area/717-goriska-regija#window.PARAMS.areaMountains"
    },
    {
      "lat": 46.4311363,
      "lon": 13.5823881,
      "name": "Razor",
      "peakName": "Razor",
      "altitude": 1702,
      "mountainLink": "https://hory.app/mountain/124546-razor",
      "source": "https://cs.hory.app/area/717-goriska-regija#window.PARAMS.areaMountains"
    },
    {
      "lat": 46.3032145,
      "lon": 13.6188138,
      "name": "Kal",
      "peakName": "Kal",
      "altitude": 1699,
      "mountainLink": "https://hory.app/mountain/124547-kal",
      "source": "https://cs.hory.app/area/717-goriska-regija#window.PARAMS.areaMountains"
    },
    {
      "lat": 46.3177439,
      "lon": 13.6265662,
      "name": "Vršiči",
      "peakName": "Vršiči",
      "altitude": 1699,
      "mountainLink": "https://hory.app/mountain/124548-vrsici",
      "source": "https://cs.hory.app/area/717-goriska-regija#window.PARAMS.areaMountains"
    },
    {
      "lat": 46.4001749,
      "lon": 13.5682453,
      "name": "Planja",
      "peakName": "Planja",
      "altitude": 1695,
      "mountainLink": "https://hory.app/mountain/124552-planja",
      "source": "https://cs.hory.app/area/717-goriska-regija#window.PARAMS.areaMountains"
    },
    {
      "lat": 46.3961924,
      "lon": 13.7619424,
      "name": "Debela peč",
      "peakName": "Debela peč",
      "altitude": 1695,
      "mountainLink": "https://hory.app/mountain/124553-debela-pec",
      "source": "https://cs.hory.app/area/717-goriska-regija#window.PARAMS.areaMountains"
    },
    {
      "lat": 46.2524834,
      "lon": 13.7068571,
      "name": "Vrh Lipnika",
      "peakName": "Vrh Lipnika",
      "altitude": 1688,
      "mountainLink": "https://hory.app/mountain/124558-vrh-lipnika",
      "source": "https://cs.hory.app/area/717-goriska-regija#window.PARAMS.areaMountains"
    },
    {
      "lat": 46.4249053,
      "lon": 13.7481424,
      "name": "Osojna glava",
      "peakName": "Osojna glava",
      "altitude": 1678,
      "mountainLink": "https://hory.app/mountain/124572-osojna-glava",
      "source": "https://cs.hory.app/area/717-goriska-regija#window.PARAMS.areaMountains"
    },
    {
      "lat": 46.27842,
      "lon": 13.4539817,
      "name": "Stol",
      "peakName": "Stol",
      "altitude": 1673,
      "mountainLink": "https://hory.app/mountain/124573-stol",
      "source": "https://cs.hory.app/area/717-goriska-regija#window.PARAMS.areaMountains"
    },
    {
      "lat": 46.3844487,
      "lon": 13.7241966,
      "name": "Na Glavi",
      "peakName": "Na Glavi",
      "altitude": 1666,
      "mountainLink": "https://hory.app/mountain/124578-na-glavi",
      "source": "https://cs.hory.app/area/717-goriska-regija#window.PARAMS.areaMountains"
    },
    {
      "lat": 46.2977038,
      "lon": 13.5565105,
      "name": "Pirhovec",
      "peakName": "Pirhovec",
      "altitude": 1663,
      "mountainLink": "https://hory.app/mountain/124581-pirhovec",
      "source": "https://cs.hory.app/area/717-goriska-regija#window.PARAMS.areaMountains"
    },
    {
      "lat": 46.3504189,
      "lon": 13.6107892,
      "name": "Svinjak",
      "peakName": "Svinjak",
      "altitude": 1653,
      "mountainLink": "https://hory.app/mountain/124586-svinjak",
      "source": "https://cs.hory.app/area/717-goriska-regija#window.PARAMS.areaMountains"
    },
    {
      "lat": 46.3944646,
      "lon": 13.7636107,
      "name": "Vrh nad Velikim Prosekom",
      "peakName": "Vrh nad Velikim Prosekom",
      "altitude": 1653,
      "mountainLink": "https://hory.app/mountain/124587-vrh-nad-velikim-prosekom",
      "source": "https://cs.hory.app/area/717-goriska-regija#window.PARAMS.areaMountains"
    },
    {
      "lat": 46.2121701,
      "lon": 13.5294695,
      "name": "Matajur",
      "peakName": "Matajur",
      "altitude": 1645,
      "mountainLink": "https://hory.app/mountain/124595-matajur",
      "source": "https://cs.hory.app/area/717-goriska-regija#window.PARAMS.areaMountains"
    },
    {
      "lat": 46.3418793,
      "lon": 13.48816,
      "name": "Turn v Skednju",
      "peakName": "Turn v Skednju",
      "altitude": 1645,
      "mountainLink": "https://hory.app/mountain/124596-turn-v-skednju",
      "source": "https://cs.hory.app/area/717-goriska-regija#window.PARAMS.areaMountains"
    },
    {
      "lat": 46.3250681,
      "lon": 13.4556878,
      "name": "Mostiči",
      "peakName": "Mostiči",
      "altitude": 1643,
      "mountainLink": "https://hory.app/mountain/124598-mostici",
      "source": "https://cs.hory.app/area/717-goriska-regija#window.PARAMS.areaMountains"
    },
    {
      "lat": 46.1771644,
      "lon": 13.9743017,
      "name": "Porezen",
      "peakName": "Porezen",
      "altitude": 1632,
      "mountainLink": "https://hory.app/mountain/124613-porezen",
      "source": "https://cs.hory.app/area/717-goriska-regija#window.PARAMS.areaMountains"
    },
    {
      "lat": 46.2890392,
      "lon": 13.411017,
      "name": "Veliki Muzec (Gabrovec)",
      "peakName": "Veliki Muzec (Gabrovec)",
      "altitude": 1629,
      "mountainLink": "https://hory.app/mountain/124616-veliki-muzec-gabrovec",
      "source": "https://cs.hory.app/area/717-goriska-regija#window.PARAMS.areaMountains"
    },
    {
      "lat": 46.2914393,
      "lon": 13.603515,
      "name": "Debeljak",
      "peakName": "Debeljak",
      "altitude": 1628,
      "mountainLink": "https://hory.app/mountain/124617-debeljak",
      "source": "https://cs.hory.app/area/717-goriska-regija#window.PARAMS.areaMountains"
    },
    {
      "lat": 46.2308228,
      "lon": 13.947401,
      "name": "Oltar",
      "peakName": "Oltar",
      "altitude": 1616,
      "mountainLink": "https://hory.app/mountain/124628-oltar",
      "source": "https://cs.hory.app/area/717-goriska-regija#window.PARAMS.areaMountains"
    },
    {
      "lat": 46.2872538,
      "lon": 13.4183984,
      "name": "Mali Muzec",
      "peakName": "Mali Muzec",
      "altitude": 1612,
      "mountainLink": "https://hory.app/mountain/124632-mali-muzec",
      "source": "https://cs.hory.app/area/717-goriska-regija#window.PARAMS.areaMountains"
    },
    {
      "lat": 46.4062354,
      "lon": 13.6370204,
      "name": "Ruševa glava",
      "peakName": "Ruševa glava",
      "altitude": 1612,
      "mountainLink": "https://hory.app/mountain/124633-ruseva-glava",
      "source": "https://cs.hory.app/area/717-goriska-regija#window.PARAMS.areaMountains"
    },
    {
      "lat": 46.2797438,
      "lon": 13.4468967,
      "name": "Njivca",
      "peakName": "Njivca",
      "altitude": 1602,
      "mountainLink": "https://hory.app/mountain/124640-njivca",
      "source": "https://cs.hory.app/area/717-goriska-regija#window.PARAMS.areaMountains"
    },
    {
      "lat": 46.2860669,
      "lon": 13.7008216,
      "name": "Mala Montura",
      "peakName": "Mala Montura",
      "altitude": 1598,
      "mountainLink": "https://hory.app/mountain/124646-mala-montura",
      "source": "https://cs.hory.app/area/717-goriska-regija#window.PARAMS.areaMountains"
    },
    {
      "lat": 46.3502849,
      "lon": 13.7308605,
      "name": "Glava",
      "peakName": "Glava",
      "altitude": 1594,
      "mountainLink": "https://hory.app/mountain/124649-glava",
      "source": "https://cs.hory.app/area/717-goriska-regija#window.PARAMS.areaMountains"
    },
    {
      "lat": 46.2821435,
      "lon": 13.4538843,
      "name": "Mali Stol",
      "peakName": "Mali Stol",
      "altitude": 1593,
      "mountainLink": "https://hory.app/mountain/124651-mali-stol",
      "source": "https://cs.hory.app/area/717-goriska-regija#window.PARAMS.areaMountains"
    },
    {
      "lat": 46.2538661,
      "lon": 13.6497136,
      "name": "Kožljak",
      "peakName": "Kožljak",
      "altitude": 1587,
      "mountainLink": "https://hory.app/mountain/124657-kozljak",
      "source": "https://cs.hory.app/area/717-goriska-regija#window.PARAMS.areaMountains"
    },
    {
      "lat": 46.3498618,
      "lon": 13.4965241,
      "name": "Gorenji prehodi",
      "peakName": "Gorenji prehodi",
      "altitude": 1584,
      "mountainLink": "https://hory.app/mountain/124659-gorenji-prehodi",
      "source": "https://cs.hory.app/area/717-goriska-regija#window.PARAMS.areaMountains"
    },
    {
      "lat": 46.2826223,
      "lon": 13.4409988,
      "name": "Puntarčič",
      "peakName": "Puntarčič",
      "altitude": 1582,
      "mountainLink": "https://hory.app/mountain/124662-puntarcic",
      "source": "https://cs.hory.app/area/717-goriska-regija#window.PARAMS.areaMountains"
    },
    {
      "lat": 46.4087179,
      "lon": 13.5779322,
      "name": "Veliki Koteh",
      "peakName": "Veliki Koteh",
      "altitude": 1578,
      "mountainLink": "https://hory.app/mountain/124665-veliki-koteh",
      "source": "https://cs.hory.app/area/717-goriska-regija#window.PARAMS.areaMountains"
    },
    {
      "lat": 46.2918881,
      "lon": 13.3990717,
      "name": "Nad Ohojami",
      "peakName": "Nad Ohojami",
      "altitude": 1576,
      "mountainLink": "https://hory.app/mountain/124668-nad-ohojami",
      "source": "https://cs.hory.app/area/717-goriska-regija#window.PARAMS.areaMountains"
    },
    {
      "lat": 46.2392727,
      "lon": 13.7503301,
      "name": "Grušnica",
      "peakName": "Grušnica",
      "altitude": 1570,
      "mountainLink": "https://hory.app/mountain/124674-grusnica",
      "source": "https://cs.hory.app/area/717-goriska-regija#window.PARAMS.areaMountains"
    },
    {
      "lat": 46.2903584,
      "lon": 13.4021918,
      "name": "Kopa",
      "peakName": "Kopa",
      "altitude": 1557,
      "mountainLink": "https://hory.app/mountain/124684-kopa",
      "source": "https://cs.hory.app/area/717-goriska-regija#window.PARAMS.areaMountains"
    },
    {
      "lat": 46.3140764,
      "lon": 13.5977074,
      "name": "Javoršček",
      "peakName": "Javoršček",
      "altitude": 1557,
      "mountainLink": "https://hory.app/mountain/124685-javorscek",
      "source": "https://cs.hory.app/area/717-goriska-regija#window.PARAMS.areaMountains"
    },
    {
      "lat": 46.4262378,
      "lon": 13.6148275,
      "name": "Planja",
      "peakName": "Planja",
      "altitude": 1553,
      "mountainLink": "https://hory.app/mountain/124689-planja",
      "source": "https://cs.hory.app/area/717-goriska-regija#window.PARAMS.areaMountains"
    },
    {
      "lat": 46.32591,
      "lon": 13.6687745,
      "name": "Črni vrh",
      "peakName": "Črni vrh",
      "altitude": 1544,
      "mountainLink": "https://hory.app/mountain/124699-crni-vrh",
      "source": "https://cs.hory.app/area/717-goriska-regija#window.PARAMS.areaMountains"
    },
    {
      "lat": 46.1865695,
      "lon": 13.9810861,
      "name": "Pohoški klup (Glava)",
      "peakName": "Pohoški klup (Glava)",
      "altitude": 1542,
      "mountainLink": "https://hory.app/mountain/124702-pohoski-klup-glava",
      "source": "https://cs.hory.app/area/717-goriska-regija#window.PARAMS.areaMountains"
    },
    {
      "lat": 46.3926487,
      "lon": 13.6084097,
      "name": "Planinica",
      "peakName": "Planinica",
      "altitude": 1531,
      "mountainLink": "https://hory.app/mountain/124718-planinica",
      "source": "https://cs.hory.app/area/717-goriska-regija#window.PARAMS.areaMountains"
    },
    {
      "lat": 46.4115562,
      "lon": 13.5889568,
      "name": "Ruševa glava",
      "peakName": "Ruševa glava",
      "altitude": 1519,
      "mountainLink": "https://hory.app/mountain/124728-ruseva-glava",
      "source": "https://cs.hory.app/area/717-goriska-regija#window.PARAMS.areaMountains"
    },
    {
      "lat": 46.2859276,
      "lon": 13.4285839,
      "name": "Ribežni",
      "peakName": "Ribežni",
      "altitude": 1518,
      "mountainLink": "https://hory.app/mountain/124729-ribezni",
      "source": "https://cs.hory.app/area/717-goriska-regija#window.PARAMS.areaMountains"
    },
    {
      "lat": 46.291332,
      "lon": 13.3837576,
      "name": "Gnjilica",
      "peakName": "Gnjilica",
      "altitude": 1516,
      "mountainLink": "https://hory.app/mountain/124731-gnjilica",
      "source": "https://cs.hory.app/area/717-goriska-regija#window.PARAMS.areaMountains"
    },
    {
      "lat": 46.4315682,
      "lon": 13.6665469,
      "name": "Turn",
      "peakName": "Turn",
      "altitude": 1513,
      "mountainLink": "https://hory.app/mountain/124737-turn",
      "source": "https://cs.hory.app/area/717-goriska-regija#window.PARAMS.areaMountains"
    },
    {
      "lat": 46.3169056,
      "lon": 13.68565,
      "name": "Vovenk",
      "peakName": "Vovenk",
      "altitude": 1512,
      "mountainLink": "https://hory.app/mountain/124738-vovenk",
      "source": "https://cs.hory.app/area/717-goriska-regija#window.PARAMS.areaMountains"
    },
    {
      "lat": 46.4058994,
      "lon": 13.7631494,
      "name": "Ruševa glava",
      "peakName": "Ruševa glava",
      "altitude": 1508,
      "mountainLink": "https://hory.app/mountain/124741-ruseva-glava",
      "source": "https://cs.hory.app/area/717-goriska-regija#window.PARAMS.areaMountains"
    },
    {
      "lat": 45.9785962,
      "lon": 13.8643384,
      "name": "Mali Golak",
      "peakName": "Mali Golak",
      "altitude": 1495,
      "mountainLink": "https://hory.app/mountain/124756-mali-golak",
      "source": "https://cs.hory.app/area/717-goriska-regija#window.PARAMS.areaMountains"
    },
    {
      "lat": 46.4309158,
      "lon": 13.6220083,
      "name": "Vrh Ilovca",
      "peakName": "Vrh Ilovca",
      "altitude": 1489,
      "mountainLink": "https://hory.app/mountain/124760-vrh-ilovca",
      "source": "https://cs.hory.app/area/717-goriska-regija#window.PARAMS.areaMountains"
    },
    {
      "lat": 46.2913469,
      "lon": 13.3916634,
      "name": "Nizki vrh",
      "peakName": "Nizki vrh",
      "altitude": 1488,
      "mountainLink": "https://hory.app/mountain/124762-nizki-vrh",
      "source": "https://cs.hory.app/area/717-goriska-regija#window.PARAMS.areaMountains"
    },
    {
      "lat": 46.3019197,
      "lon": 13.5422233,
      "name": "Špik",
      "peakName": "Špik",
      "altitude": 1482,
      "mountainLink": "https://hory.app/mountain/124766-spik",
      "source": "https://cs.hory.app/area/717-goriska-regija#window.PARAMS.areaMountains"
    },
    {
      "lat": 46.2350817,
      "lon": 13.6949654,
      "name": "Visoč vrh",
      "peakName": "Visoč vrh",
      "altitude": 1482,
      "mountainLink": "https://hory.app/mountain/124767-visoc-vrh",
      "source": "https://cs.hory.app/area/717-goriska-regija#window.PARAMS.areaMountains"
    },
    {
      "lat": 46.2926131,
      "lon": 13.6962795,
      "name": "Vrh Duplja",
      "peakName": "Vrh Duplja",
      "altitude": 1481,
      "mountainLink": "https://hory.app/mountain/124770-vrh-duplja",
      "source": "https://cs.hory.app/area/717-goriska-regija#window.PARAMS.areaMountains"
    },
    {
      "lat": 45.9750192,
      "lon": 13.8727045,
      "name": "Srednji Golak",
      "peakName": "Srednji Golak",
      "altitude": 1480,
      "mountainLink": "https://hory.app/mountain/124773-srednji-golak",
      "source": "https://cs.hory.app/area/717-goriska-regija#window.PARAMS.areaMountains"
    },
    {
      "lat": 45.972959,
      "lon": 13.8788565,
      "name": "Veliki Golak",
      "peakName": "Veliki Golak",
      "altitude": 1480,
      "mountainLink": "https://hory.app/mountain/124774-veliki-golak",
      "source": "https://cs.hory.app/area/717-goriska-regija#window.PARAMS.areaMountains"
    },
    {
      "lat": 46.3025354,
      "lon": 13.5206292,
      "name": "Vrh Lipnika",
      "peakName": "Vrh Lipnika",
      "altitude": 1476,
      "mountainLink": "https://hory.app/mountain/124780-vrh-lipnika",
      "source": "https://cs.hory.app/area/717-goriska-regija#window.PARAMS.areaMountains"
    },
    {
      "lat": 46.1901258,
      "lon": 13.7954261,
      "name": "Kobilja glava",
      "peakName": "Kobilja glava",
      "altitude": 1475,
      "mountainLink": "https://hory.app/mountain/124783-kobilja-glava",
      "source": "https://cs.hory.app/area/717-goriska-regija#window.PARAMS.areaMountains"
    },
    {
      "lat": 46.303422,
      "lon": 13.5142232,
      "name": "Veliki Polovnik",
      "peakName": "Veliki Polovnik",
      "altitude": 1471,
      "mountainLink": "https://hory.app/mountain/124787-veliki-polovnik",
      "source": "https://cs.hory.app/area/717-goriska-regija#window.PARAMS.areaMountains"
    },
    {
      "lat": 45.9815045,
      "lon": 13.8667361,
      "name": "Beli hrib",
      "peakName": "Beli hrib",
      "altitude": 1469,
      "mountainLink": "https://hory.app/mountain/124789-beli-hrib",
      "source": "https://cs.hory.app/area/717-goriska-regija#window.PARAMS.areaMountains"
    },
    {
      "lat": 46.3018429,
      "lon": 13.5266439,
      "name": "Nad Pečem",
      "peakName": "Nad Pečem",
      "altitude": 1458,
      "mountainLink": "https://hory.app/mountain/124807-nad-pecem",
      "source": "https://cs.hory.app/area/717-goriska-regija#window.PARAMS.areaMountains"
    },
    {
      "lat": 46.4120668,
      "lon": 13.5925412,
      "name": "Kolovrat",
      "peakName": "Kolovrat",
      "altitude": 1454,
      "mountainLink": "https://hory.app/mountain/124809-kolovrat",
      "source": "https://cs.hory.app/area/717-goriska-regija#window.PARAMS.areaMountains"
    },
    {
      "lat": 46.1872064,
      "lon": 13.8008841,
      "name": "Jalovnik",
      "peakName": "Jalovnik",
      "altitude": 1452,
      "mountainLink": "https://hory.app/mountain/124813-jalovnik",
      "source": "https://cs.hory.app/area/717-goriska-regija#window.PARAMS.areaMountains"
    },
    {
      "lat": 45.9857715,
      "lon": 13.8558613,
      "name": "Smrekov vrh",
      "peakName": "Smrekov vrh",
      "altitude": 1449,
      "mountainLink": "https://hory.app/mountain/124815-smrekov-vrh",
      "source": "https://cs.hory.app/area/717-goriska-regija#window.PARAMS.areaMountains"
    },
    {
      "lat": 46.214955,
      "lon": 13.539345,
      "name": "Veliki vrh / Monte Grande",
      "peakName": "Veliki vrh / Monte Grande",
      "altitude": 1446,
      "mountainLink": "https://hory.app/mountain/124819-veliki-vrh-monte-grande",
      "source": "https://cs.hory.app/area/717-goriska-regija#window.PARAMS.areaMountains"
    },
    {
      "lat": 45.9973851,
      "lon": 13.8438323,
      "name": "Veliki Bukovec",
      "peakName": "Veliki Bukovec",
      "altitude": 1445,
      "mountainLink": "https://hory.app/mountain/124822-veliki-bukovec",
      "source": "https://cs.hory.app/area/717-goriska-regija#window.PARAMS.areaMountains"
    },
    {
      "lat": 46.329318,
      "lon": 13.4839956,
      "name": "Kopa",
      "peakName": "Kopa",
      "altitude": 1433,
      "mountainLink": "https://hory.app/mountain/124834-kopa",
      "source": "https://cs.hory.app/area/717-goriska-regija#window.PARAMS.areaMountains"
    },
    {
      "lat": 46.2870085,
      "lon": 13.686689,
      "name": "Glava",
      "peakName": "Glava",
      "altitude": 1423,
      "mountainLink": "https://hory.app/mountain/124842-glava",
      "source": "https://cs.hory.app/area/717-goriska-regija#window.PARAMS.areaMountains"
    },
    {
      "lat": 46.1671101,
      "lon": 13.9946907,
      "name": "Hum",
      "peakName": "Hum",
      "altitude": 1423,
      "mountainLink": "https://hory.app/mountain/124843-hum",
      "source": "https://cs.hory.app/area/717-goriska-regija#window.PARAMS.areaMountains"
    },
    {
      "lat": 46.169273,
      "lon": 13.9834339,
      "name": "Medrce",
      "peakName": "Medrce",
      "altitude": 1411,
      "mountainLink": "https://hory.app/mountain/124856-medrce",
      "source": "https://cs.hory.app/area/717-goriska-regija#window.PARAMS.areaMountains"
    },
    {
      "lat": 46.2202931,
      "lon": 13.5349619,
      "name": "Lučavčeva glava",
      "peakName": "Lučavčeva glava",
      "altitude": 1408,
      "mountainLink": "https://hory.app/mountain/124862-lucavceva-glava",
      "source": "https://cs.hory.app/area/717-goriska-regija#window.PARAMS.areaMountains"
    },
    {
      "lat": 45.9782759,
      "lon": 13.805673,
      "name": "Mrzovec",
      "peakName": "Mrzovec",
      "altitude": 1407,
      "mountainLink": "https://hory.app/mountain/124863-mrzovec",
      "source": "https://cs.hory.app/area/717-goriska-regija#window.PARAMS.areaMountains"
    },
    {
      "lat": 46.2731252,
      "lon": 13.4834445,
      "name": "Mali vrh",
      "peakName": "Mali vrh",
      "altitude": 1405,
      "mountainLink": "https://hory.app/mountain/124865-mali-vrh",
      "source": "https://cs.hory.app/area/717-goriska-regija#window.PARAMS.areaMountains"
    },
    {
      "lat": 45.9664147,
      "lon": 13.9004129,
      "name": "Javorški vrh",
      "peakName": "Javorški vrh",
      "altitude": 1404,
      "mountainLink": "https://hory.app/mountain/124867-javorski-vrh",
      "source": "https://cs.hory.app/area/717-goriska-regija#window.PARAMS.areaMountains"
    },
    {
      "lat": 46.2199113,
      "lon": 13.8993055,
      "name": "Bizle",
      "peakName": "Bizle",
      "altitude": 1396,
      "mountainLink": "https://hory.app/mountain/124877-bizle",
      "source": "https://cs.hory.app/area/717-goriska-regija#window.PARAMS.areaMountains"
    },
    {
      "lat": 46.2232164,
      "lon": 13.8396402,
      "name": "Konjsko brdo",
      "peakName": "Konjsko brdo",
      "altitude": 1385,
      "mountainLink": "https://hory.app/mountain/124893-konjsko-brdo",
      "source": "https://cs.hory.app/area/717-goriska-regija#window.PARAMS.areaMountains"
    },
    {
      "lat": 46.4154159,
      "lon": 13.7404663,
      "name": "Šupca",
      "peakName": "Šupca",
      "altitude": 1381,
      "mountainLink": "https://hory.app/mountain/124899-supca",
      "source": "https://cs.hory.app/area/717-goriska-regija#window.PARAMS.areaMountains"
    },
    {
      "lat": 46.2155894,
      "lon": 13.5490126,
      "name": "Veliki vrh",
      "peakName": "Veliki vrh",
      "altitude": 1377,
      "mountainLink": "https://hory.app/mountain/124904-veliki-vrh",
      "source": "https://cs.hory.app/area/717-goriska-regija#window.PARAMS.areaMountains"
    },
    {
      "lat": 46.1955111,
      "lon": 13.9815718,
      "name": "Črni vrh",
      "peakName": "Črni vrh",
      "altitude": 1377,
      "mountainLink": "https://hory.app/mountain/124905-crni-vrh",
      "source": "https://cs.hory.app/area/717-goriska-regija#window.PARAMS.areaMountains"
    },
    {
      "lat": 45.9483125,
      "lon": 13.8194335,
      "name": "Praprot",
      "peakName": "Praprot",
      "altitude": 1374,
      "mountainLink": "https://hory.app/mountain/124911-praprot",
      "source": "https://cs.hory.app/area/717-goriska-regija#window.PARAMS.areaMountains"
    },
    {
      "lat": 46.2194871,
      "lon": 13.543119,
      "name": "Kuk",
      "peakName": "Kuk",
      "altitude": 1368,
      "mountainLink": "https://hory.app/mountain/124923-kuk",
      "source": "https://cs.hory.app/area/717-goriska-regija#window.PARAMS.areaMountains"
    },
    {
      "lat": 45.9664976,
      "lon": 13.8836506,
      "name": "Medvedji hrib",
      "peakName": "Medvedji hrib",
      "altitude": 1365,
      "mountainLink": "https://hory.app/mountain/124931-medvedji-hrib",
      "source": "https://cs.hory.app/area/717-goriska-regija#window.PARAMS.areaMountains"
    },
    {
      "lat": 45.9673407,
      "lon": 13.8900533,
      "name": "Vrc",
      "peakName": "Vrc",
      "altitude": 1365,
      "mountainLink": "https://hory.app/mountain/124932-vrc",
      "source": "https://cs.hory.app/area/717-goriska-regija#window.PARAMS.areaMountains"
    },
    {
      "lat": 46.234304,
      "lon": 13.758972,
      "name": "Javor",
      "peakName": "Javor",
      "altitude": 1363,
      "mountainLink": "https://hory.app/mountain/124935-javor",
      "source": "https://cs.hory.app/area/717-goriska-regija#window.PARAMS.areaMountains"
    },
    {
      "lat": 45.9762368,
      "lon": 13.8008968,
      "name": "Petelinovec",
      "peakName": "Petelinovec",
      "altitude": 1362,
      "mountainLink": "https://hory.app/mountain/124938-petelinovec",
      "source": "https://cs.hory.app/area/717-goriska-regija#window.PARAMS.areaMountains"
    },
    {
      "lat": 46.218968,
      "lon": 13.6953313,
      "name": "Mrzli vrh",
      "peakName": "Mrzli vrh",
      "altitude": 1360,
      "mountainLink": "https://hory.app/mountain/124940-mrzli-vrh",
      "source": "https://cs.hory.app/area/717-goriska-regija#window.PARAMS.areaMountains"
    },
    {
      "lat": 46.1632589,
      "lon": 14.0043934,
      "name": "Kopa",
      "peakName": "Kopa",
      "altitude": 1360,
      "mountainLink": "https://hory.app/mountain/124941-kopa",
      "source": "https://cs.hory.app/area/717-goriska-regija#window.PARAMS.areaMountains"
    },
    {
      "lat": 45.9936548,
      "lon": 13.8198717,
      "name": "Ojstrovica",
      "peakName": "Ojstrovica",
      "altitude": 1358,
      "mountainLink": "https://hory.app/mountain/124942-ojstrovica",
      "source": "https://cs.hory.app/area/717-goriska-regija#window.PARAMS.areaMountains"
    },
    {
      "lat": 46.2097247,
      "lon": 13.5623672,
      "name": "Mrzli vrh",
      "peakName": "Mrzli vrh",
      "altitude": 1358,
      "mountainLink": "https://hory.app/mountain/124943-mrzli-vrh",
      "source": "https://cs.hory.app/area/717-goriska-regija#window.PARAMS.areaMountains"
    },
    {
      "lat": 45.9650022,
      "lon": 13.8771979,
      "name": "Mošančarski hrib",
      "peakName": "Mošančarski hrib",
      "altitude": 1356,
      "mountainLink": "https://hory.app/mountain/124946-mosancarski-hrib",
      "source": "https://cs.hory.app/area/717-goriska-regija#window.PARAMS.areaMountains"
    },
    {
      "lat": 45.9364729,
      "lon": 13.8495784,
      "name": "Veliki Modrasovec",
      "peakName": "Veliki Modrasovec",
      "altitude": 1355,
      "mountainLink": "https://hory.app/mountain/124948-veliki-modrasovec",
      "source": "https://cs.hory.app/area/717-goriska-regija#window.PARAMS.areaMountains"
    },
    {
      "lat": 46.2714503,
      "lon": 13.4987572,
      "name": "Vršanja glava",
      "peakName": "Vršanja glava",
      "altitude": 1354,
      "mountainLink": "https://hory.app/mountain/124951-vrsanja-glava",
      "source": "https://cs.hory.app/area/717-goriska-regija#window.PARAMS.areaMountains"
    },
    {
      "lat": 45.952124,
      "lon": 13.8335955,
      "name": "Veliki Črmenjak",
      "peakName": "Veliki Črmenjak",
      "altitude": 1353,
      "mountainLink": "https://hory.app/mountain/124952-veliki-crmenjak",
      "source": "https://cs.hory.app/area/717-goriska-regija#window.PARAMS.areaMountains"
    },
    {
      "lat": 46.2358323,
      "lon": 13.9749836,
      "name": "Šance",
      "peakName": "Šance",
      "altitude": 1350,
      "mountainLink": "https://hory.app/mountain/124955-sance",
      "source": "https://cs.hory.app/area/717-goriska-regija#window.PARAMS.areaMountains"
    },
    {
      "lat": 46.0127772,
      "lon": 13.8157077,
      "name": "Veliki Češevnik",
      "peakName": "Veliki Češevnik",
      "altitude": 1349,
      "mountainLink": "https://hory.app/mountain/124956-veliki-cesevnik",
      "source": "https://cs.hory.app/area/717-goriska-regija#window.PARAMS.areaMountains"
    },
    {
      "lat": 45.9804417,
      "lon": 13.8964403,
      "name": "Poslušanje",
      "peakName": "Poslušanje",
      "altitude": 1345,
      "mountainLink": "https://hory.app/mountain/124961-poslusanje",
      "source": "https://cs.hory.app/area/717-goriska-regija#window.PARAMS.areaMountains"
    },
    {
      "lat": 46.168056,
      "lon": 14.0072893,
      "name": "Črtov rob",
      "peakName": "Črtov rob",
      "altitude": 1344,
      "mountainLink": "https://hory.app/mountain/124963-crtov-rob",
      "source": "https://cs.hory.app/area/717-goriska-regija#window.PARAMS.areaMountains"
    },
    {
      "lat": 46.4156609,
      "lon": 13.5897303,
      "name": "Kosmato Brdo",
      "peakName": "Kosmato Brdo",
      "altitude": 1343,
      "mountainLink": "https://hory.app/mountain/124966-kosmato-brdo",
      "source": "https://cs.hory.app/area/717-goriska-regija#window.PARAMS.areaMountains"
    },
    {
      "lat": 45.9444711,
      "lon": 13.8289557,
      "name": "Bižaj",
      "peakName": "Bižaj",
      "altitude": 1342,
      "mountainLink": "https://hory.app/mountain/124968-bizaj",
      "source": "https://cs.hory.app/area/717-goriska-regija#window.PARAMS.areaMountains"
    },
    {
      "lat": 45.9702758,
      "lon": 13.9092975,
      "name": "Ciganski vrh",
      "peakName": "Ciganski vrh",
      "altitude": 1336,
      "mountainLink": "https://hory.app/mountain/124978-ciganski-vrh",
      "source": "https://cs.hory.app/area/717-goriska-regija#window.PARAMS.areaMountains"
    },
    {
      "lat": 46.2246787,
      "lon": 13.5275554,
      "name": "Bandera",
      "peakName": "Bandera",
      "altitude": 1326,
      "mountainLink": "https://hory.app/mountain/124990-bandera",
      "source": "https://cs.hory.app/area/717-goriska-regija#window.PARAMS.areaMountains"
    },
    {
      "lat": 45.9799957,
      "lon": 13.8143033,
      "name": "Bisaga",
      "peakName": "Bisaga",
      "altitude": 1324,
      "mountainLink": "https://hory.app/mountain/124994-bisaga",
      "source": "https://cs.hory.app/area/717-goriska-regija#window.PARAMS.areaMountains"
    },
    {
      "lat": 46.2089392,
      "lon": 13.5655349,
      "name": "Srednji vrh",
      "peakName": "Srednji vrh",
      "altitude": 1323,
      "mountainLink": "https://hory.app/mountain/124996-srednji-vrh",
      "source": "https://cs.hory.app/area/717-goriska-regija#window.PARAMS.areaMountains"
    },
    {
      "lat": 45.9729462,
      "lon": 13.8910314,
      "name": "Kurje brdo",
      "peakName": "Kurje brdo",
      "altitude": 1322,
      "mountainLink": "https://hory.app/mountain/124998-kurje-brdo",
      "source": "https://cs.hory.app/area/717-goriska-regija#window.PARAMS.areaMountains"
    },
    {
      "lat": 45.9412403,
      "lon": 13.8241734,
      "name": "Skobilišče",
      "peakName": "Skobilišče",
      "altitude": 1321,
      "mountainLink": "https://hory.app/mountain/125001-skobilisce",
      "source": "https://cs.hory.app/area/717-goriska-regija#window.PARAMS.areaMountains"
    },
    {
      "lat": 45.9432938,
      "lon": 13.8172823,
      "name": "Slejkov vrh",
      "peakName": "Slejkov vrh",
      "altitude": 1314,
      "mountainLink": "https://hory.app/mountain/125008-slejkov-vrh",
      "source": "https://cs.hory.app/area/717-goriska-regija#window.PARAMS.areaMountains"
    },
    {
      "lat": 45.9910776,
      "lon": 13.8844982,
      "name": "Bukov vrh",
      "peakName": "Bukov vrh",
      "altitude": 1314,
      "mountainLink": "https://hory.app/mountain/125009-bukov-vrh",
      "source": "https://cs.hory.app/area/717-goriska-regija#window.PARAMS.areaMountains"
    },
    {
      "lat": 46.007848,
      "lon": 13.8198768,
      "name": "Mojski vrh",
      "peakName": "Mojski vrh",
      "altitude": 1313,
      "mountainLink": "https://hory.app/mountain/125011-mojski-vrh",
      "source": "https://cs.hory.app/area/717-goriska-regija#window.PARAMS.areaMountains"
    },
    {
      "lat": 46.3612399,
      "lon": 13.5754642,
      "name": "Veliki rob",
      "peakName": "Veliki rob",
      "altitude": 1313,
      "mountainLink": "https://hory.app/mountain/125013-veliki-rob",
      "source": "https://cs.hory.app/area/717-goriska-regija#window.PARAMS.areaMountains"
    },
    {
      "lat": 45.9486325,
      "lon": 13.8466804,
      "name": "Cingolca",
      "peakName": "Cingolca",
      "altitude": 1307,
      "mountainLink": "https://hory.app/mountain/125020-cingolca",
      "source": "https://cs.hory.app/area/717-goriska-regija#window.PARAMS.areaMountains"
    },
    {
      "lat": 45.9302568,
      "lon": 13.8536081,
      "name": "Mali Modrasovec",
      "peakName": "Mali Modrasovec",
      "altitude": 1306,
      "mountainLink": "https://hory.app/mountain/125023-mali-modrasovec",
      "source": "https://cs.hory.app/area/717-goriska-regija#window.PARAMS.areaMountains"
    },
    {
      "lat": 46.1667967,
      "lon": 13.9648803,
      "name": "Otavnik",
      "peakName": "Otavnik",
      "altitude": 1306,
      "mountainLink": "https://hory.app/mountain/125024-otavnik",
      "source": "https://cs.hory.app/area/717-goriska-regija#window.PARAMS.areaMountains"
    },
    {
      "lat": 46.1537819,
      "lon": 13.9267849,
      "name": "Kojca",
      "peakName": "Kojca",
      "altitude": 1303,
      "mountainLink": "https://hory.app/mountain/125029-kojca",
      "source": "https://cs.hory.app/area/717-goriska-regija#window.PARAMS.areaMountains"
    },